<?xml version="1.0" encoding="iso-8859-2"?>
<data>
<sst desc="Albrechtice 400 kV" geo="1" lat="49.78" lon="18.38" name="ALB" path="/EU/ALB" vls="400"/>
<sst desc="Nosovice 400 kV" geo="1" lat="49.66" lon="18.43" name="NOS" path="/EU/NOS" vls="400"/>
<sst desc="Dobrotvinska 220 kV" geo="1" lat="50.23" lon="24.36" name="DOB" path="/EU/DOB" vls="220"/>
<sst desc="Liskovec 220 kV" geo="1" lat="49.62" lon="18.52" name="LIS" path="/EU/LIS" vls="220"/>
<sst desc="Hagenwerder 400 kV" geo="1" lat="51.06" lon="14.79" name="HAG" path="/EU/HAG" vls="400"/>
<sst desc="Vierraden 400 kV" geo="1" lat="53.1" lon="14.2" name="VIE" path="/EU/VIE" vls="400"/>
<sst desc="Storno 450 kV DC" geo="1" lat="55.16" lon="16.53" name="STA" path="/EU/STA" vls="400"/>
<sst desc="Chmielnicka 750 kV" geo="1" lat="49.70" lon="24.30" name="CHA" path="/EU/CHA" vls="750"/>
<sst desc="Alytus 400kV" geo="1" lat="54.47" lon="17.06" name="ALY" path="/EU/ALY" vls="400"/>
<sst desc="Brest 110 kV" geo="1" lat="52.1" lon="23.7" name="BRD" path="/EU/BRD" vls="110"/>
<sst desc="Nachod 110 kV" geo="1" lat="50.41" lon="16.16" name="NAH" path="/EU/NAH" vls="110"/>
<sst desc="Police 110 kV" geo="1" lat="50.46" lon="16.13" name="PLC" path="/EU/PLC" vls="110"/>
<sst desc="Porici 110 kV" geo="1" lat="50.58" lon="15.96" name="PRC" path="/EU/PRC" vls="110"/>
<sst desc="Neueibau 110 kV" geo="1" lat="50.96" lon="14.65" name="NEU" path="/EU/NEU" vls="110"/>
<sst desc="Adamowo 110 kV" geo="1" lat="52.35" lon="23.12" name="ADM" path="/PSE-1/ADM" vls="110"/>
<sst desc="Augustów 110 kV" geo="1" lat="53.83" lon="22.98" name="AUG" path="/PSE-1/AUG" vls="110"/>
<sst desc="Bia³ystok 11 110 kV" geo="1" lat="49.6" lon="21.8" name="B11" path="/PSE-1/B11" vls="110"/>
<sst desc="Babice 110 kV" geo="1" lat="52.25" lon="20.83" name="BAB" path="/PSE-1/BAB" vls="110"/>
<sst desc="Baczki 110 kV" geo="1" lat="52.53" lon="21.77" name="BAC" path="/PSE-1/BAC" vls="110"/>
<sst desc="Be³chatów Kopalnia 220 kV" geo="1" lat="51.23" lon="19.33" name="BEK" path="/PSE-1/BEK" vls="220,15"/>
<sst desc="Piaski 110 kV" geo="1" lat="51.25" lon="19.38" name="PAI" path="/PSE-1/PAI" vls="110"/>
<sst desc="Be³chatów 110 kV" geo="1" lat="51.35" lon="19.35" name="BEL" path="/PSE-1/BEL" vls="110"/>
<sst desc="EC-2 Bia³ystok 110 kV" geo="1" lat="53.15" lon="23.16" name="BI2" path="/PSE-1/BI2" vls="110,10"/>
<sst desc="Bia³ystok 3 110 kV" geo="1" lat="53.12" lon="23.15" name="BI3" path="/PSE-1/BI3" vls="110"/>
<sst desc="Bia³ystok 4 110 kV" geo="1" lat="53.11" lon="23.17" name="BI4" path="/PSE-1/BI4" vls="110"/>
<sst desc="Bia³ystok 5 110 kV" geo="1" lat="53.11" lon="23.13" name="BI5" path="/PSE-1/BI5" vls="110"/>
<sst desc="Bia³ystok 6 110 kV" geo="1" lat="49.6" lon="21.8" name="BI6" path="/PSE-1/BI6" vls="110"/>
<sst desc="Bia³ystok 8 110 kV" geo="1" lat="53.12" lon="23.06" name="BI8" path="/PSE-1/BI8" vls="110"/>
<sst desc="Bia³ystok 9 110 kV" geo="1" lat="53.13" lon="23.17" name="BI9" path="/PSE-1/BI9" vls="110"/>
<sst desc="Bia³ystok 220/110 kV" geo="1" lat="53.16" lon="23.14" name="BIA" path="/PSE-1/BIA" vls="220,110"/>
<sst desc="¯yrardów Bielnik 110 kV" geo="1" lat="52.07" lon="20.41" name="BIE" path="/PSE-1/BIE" vls="110"/>
<sst desc="Bia³o³êka 110 kV" geo="1" lat="52.32" lon="21" name="BIO" path="/PSE-1/BIO" vls="110"/>
<sst desc="B³aszki 110 kV" geo="1" lat="51.65" lon="18.43" name="BKI" path="/PSE-1/BKI" vls="110"/>
<sst desc="B³onie 110 kV" geo="1" lat="52.18" lon="20.62" name="BLN" path="/PSE-1/BLN" vls="110"/>
<sst desc="Bronis³awów 110 kV" geo="1" lat="51.43" lon="19.9" name="BNS" path="/PSE-1/BNS" vls="110"/>
<sst desc="Bogumi³ów 110 kV" geo="1" lat="51.26" lon="19.22" name="BOG" path="/PSE-1/BOG" vls="110"/>
<sst desc="Bojanów 110 kV" geo="1" lat="52.87" lon="19.63" name="BOJ" path="/PSE-1/BOJ" vls="110"/>
<sst desc="Bia³a Piska 110 kV" geo="1" lat="53.6" lon="22.05" name="BPI" path="/PSE-1/BPI" vls="110"/>
<sst desc="Bielsk Podlaski 110 kV" geo="1" lat="52.75" lon="23.18" name="BPO" path="/PSE-1/BPO" vls="110"/>
<sst desc="Brójce 110 kV" geo="1" lat="51.67" lon="19.63" name="BRC" path="/PSE-1/BRC" vls="110"/>
<sst desc="Boryszew 110 kV" geo="1" lat="52.18" lon="20.2" name="BRS" path="/PSE-1/BRS" vls="110"/>
<sst desc="Boruta 110 kV" geo="1" lat="51.83" lon="19.38" name="BRT" path="/PSE-1/BRT" vls="110"/>
<sst desc="Brwinów 110 kV" geo="1" lat="52.13" lon="20.72" name="BRW" path="/PSE-1/BRW" vls="110"/>
<sst desc="Be³chatów Zamo¶cie 110 kV" geo="1" lat="51.34" lon="19.36" name="BZA" path="/PSE-1/BZA" vls="110"/>
<sst desc="Ceramika 110 kV" geo="1" lat="51.38" lon="20.25" name="CER" path="/PSE-1/CER" vls="110"/>
<sst desc="Chabielice 110 kV" geo="1" lat="51.26" lon="19.12" name="CHB" path="/PSE-1/CHB" vls="110"/>
<sst desc="Chrzanówek 110 kV" geo="1" lat="52.87" lon="20.65" name="CHN" path="/PSE-1/CHN" vls="110"/>
<sst desc="Chojny 110 kV" geo="1" lat="51.68" lon="19.45" name="CHY" path="/PSE-1/CHY" vls="110"/>
<sst desc="Ciechanów 110 kV" geo="1" lat="52.88" lon="20.56" name="CIA" path="/PSE-1/CIA" vls="110"/>
<sst desc="Ciechanowiec 110 kV" geo="1" lat="52.67" lon="22.51" name="CIE" path="/PSE-1/CIE" vls="110"/>
<sst desc="Czy¿ew 110 kV" geo="1" lat="52.78" lon="22.3" name="CYZ" path="/PSE-1/CYZ" vls="110"/>
<sst desc="Czarna Bia³ostocka 110 kV" geo="1" lat="53.3" lon="23.27" name="CZB" path="/PSE-1/CZB" vls="110"/>
<sst desc="Czosnów 110 kV" geo="0" lat="0" lon="0" name="CZO" path="/PSE-1/CZO" vls="110"/>
<sst desc="Dêbe 110 kV" geo="1" lat="52.49" lon="20.92" name="DBE" path="/PSE-1/DBE" vls="110,6"/>
<sst desc="D±browa Bia³ostocka 110 kV" geo="1" lat="53.65" lon="23.35" name="DBI" path="/PSE-1/DBI" vls="110"/>
<sst desc="Cementownia Warta 1 110 kV" geo="1" lat="51.1" lon="18.87" name="DC1" path="/PSE-1/DC1" vls="110"/>
<sst desc="Cementownia Warta 2 110 kV" geo="1" lat="51.11" lon="18.87" name="DC2" path="/PSE-1/DC2" vls="110"/>
<sst desc="Dzia³dowo 110 kV" geo="1" lat="53.23" lon="20.17" name="DDW" path="/PSE-1/DDW" vls="110"/>
<sst desc="Do³y 110 kV" geo="1" lat="51.78" lon="19.48" name="DOL" path="/PSE-1/DOL" vls="110"/>
<sst desc="Dzia³oszyn PKP 110 kV" geo="1" lat="51.1" lon="18.9" name="DPK" path="/PSE-1/DPK" vls="110"/>
<sst desc="Dylewo 110 kV" geo="1" lat="53.18" lon="21.45" name="DYL" path="/PSE-1/DYL" vls="110"/>
<sst desc="Elektrownia Be³chatów 110 kV" geo="1" lat="51.29" lon="19.32" name="EBE" path="/PSE-1/EBE" vls="110"/>
<sst desc="E³k Bis 400/110 kV" geo="1" lat="54.47" lon="17.06" name="EKB" path="/PSE-1/EKB" vls="400,110,15,0.4,0.22,0.23,0.048"/>
<sst desc="E³k 2 110 kV" geo="1" lat="53.83" lon="22.37" name="EL2" path="/PSE-1/EL2" vls="110"/>
<sst desc="E³k 220/110 kV" geo="1" lat="53.82" lon="22.35" name="ELK" path="/PSE-1/ELK" vls="220,110,15,0.4,0.23,0.22,0.048"/>
<sst desc="Elektrociep³ownia Siedlce 110 kV" geo="1" lat="52.17" lon="22.32" name="ESL" path="/PSE-1/ESL" vls="110,6"/>
<sst desc="Fasty 110 kV" geo="1" lat="53.17" lon="23.05" name="FAS" path="/PSE-1/FAS" vls="110"/>
<sst desc="Filipów 110 kV" geo="1" lat="54.18" lon="22.62" name="FIL" path="/PSE-1/FIL" vls="110"/>
<sst desc="G±bin 110 kV" geo="1" lat="52.4" lon="19.73" name="GAB" path="/PSE-1/GAB" vls="110"/>
<sst desc="Garwolin 110 kV" geo="1" lat="51.88" lon="21.62" name="GAR" path="/PSE-1/GAR" vls="110"/>
<sst desc="Grodzisk 110 kV" geo="1" lat="52.1" lon="20.62" name="GDK" path="/PSE-1/GDK" vls="110"/>
<sst desc="Gi¿ycko 110 kV" geo="1" lat="54.03" lon="21.77" name="GIZ" path="/PSE-1/GIZ" vls="110"/>
<sst desc="Grajewo 2 110 kV" geo="1" lat="53.63" lon="22.45" name="GJ2" path="/PSE-1/GJ2" vls="110"/>
<sst desc="Grajewo 110 kV" geo="1" lat="53.66" lon="22.48" name="GJO" path="/PSE-1/GJO" vls="110"/>
<sst desc="Gorzkowice 110 kV" geo="1" lat="51.2" lon="19.58" name="GKW" path="/PSE-1/GKW" vls="110"/>
<sst desc="G³owno 110 kV" geo="1" lat="51.95" lon="19.7" name="GLW" path="/PSE-1/GLW" vls="110"/>
<sst desc="Go³dap 110 kV" geo="1" lat="54.3" lon="22.3" name="GOD" path="/PSE-1/GOD" vls="110"/>
<sst desc="Góra Kalwaria 110 kV" geo="1" lat="51.98" lon="21.19" name="GOK" path="/PSE-1/GOK" vls="110"/>
<sst desc="Grudusk 110 kV" geo="1" lat="53.05" lon="20.62" name="GRD" path="/PSE-1/GRD" vls="110"/>
<sst desc="Grzymalin 110 kV" geo="1" lat="51.25" lon="19.3" name="GRZ" path="/PSE-1/GRZ" vls="110"/>
<sst desc="G±sin 110 kV" geo="1" lat="52.18" lon="20.71" name="GSN" path="/PSE-1/GSN" vls="110"/>
<sst desc="Gostynin 110 kV" geo="1" lat="52.42" lon="19.47" name="GST" path="/PSE-1/GST" vls="110"/>
<sst desc="Gulczewo 110 kV" geo="1" lat="52.54" lon="19.79" name="GUL" path="/PSE-1/GUL" vls="110"/>
<sst desc="Hajnówka 110 kV" geo="1" lat="52.73" lon="23.57" name="HAJ" path="/PSE-1/HAJ" vls="110"/>
<sst desc="Hañcza 110 kV" geo="1" lat="54.25" lon="22.78" name="HAN" path="/PSE-1/HAN" vls="110"/>
<sst desc="Henryków 110 kV" geo="1" lat="52.32" lon="20.97" name="HEN" path="/PSE-1/HEN" vls="110"/>
<sst desc="Huta Zawadzka 110 kV" geo="1" lat="51.92" lon="20.45" name="HZD" path="/PSE-1/HZD" vls="110"/>
<sst desc="Instytut Elektrotechniki 110 kV" geo="1" lat="52.2" lon="21.21" name="IEL" path="/PSE-1/IEL" vls="110"/>
<sst desc="Janów 220/110 kV" geo="1" lat="51.75" lon="19.55" name="JAN" path="/PSE-1/JAN" vls="220,110,15,0.4,0.048,0.22,0.23"/>
<sst desc="Jawor 110 kV" geo="1" lat="51.56" lon="18.76" name="JAW" path="/PSE-1/JAW" vls="110"/>
<sst desc="Je¿ewo 110 kV" geo="1" lat="53.13" lon="22.73" name="JEZ" path="/PSE-1/JEZ" vls="110"/>
<sst desc="Jantar 110 kV" geo="1" lat="53.15" lon="22.19" name="JNR" path="/PSE-1/JNR" vls="110"/>
<sst desc="Józefów 110 kV" geo="1" lat="52.14" lon="21.23" name="JZW" path="/PSE-1/JZW" vls="110"/>
<sst desc="Kamieñsk 110 kV" geo="1" lat="51.50" lon="19.83" name="KAM" path="/PSE-1/KAM" vls="110,30"/>
<sst desc="Karolów 110 kV" geo="1" lat="51.25" lon="19.15" name="KAR" path="/PSE-1/KAR" vls="110"/>
<sst desc="Kleszczów 110 kV" geo="1" lat="51.22" lon="19.29" name="KLE" path="/PSE-1/KLE" vls="110"/>
<sst desc="Kalinko 110 kV" geo="1" lat="51.65" lon="19.53" name="KLK" path="/PSE-1/KLK" vls="110"/>
<sst desc="Koluszki 110 kV" geo="1" lat="51.73" lon="19.82" name="KLS" path="/PSE-1/KLS" vls="110"/>
<sst desc="Kolno 110 kV" geo="1" lat="53.4" lon="21.93" name="KNO" path="/PSE-1/KNO" vls="110"/>
<sst desc="Knyszyn 110 kV" geo="1" lat="53.3" lon="22.92" name="KNS" path="/PSE-1/KNS" vls="110"/>
<sst desc="Kobia³ka 110 kV" geo="1" lat="52.35" lon="21.03" name="KOB" path="/PSE-1/KOB" vls="110"/>
<sst desc="Kro¶niewice 110 kV" geo="1" lat="52.25" lon="19.17" name="KRN" path="/PSE-1/KRN" vls="110"/>
<sst desc="Karczew 110 kV" geo="1" lat="52.07" lon="21.25" name="KRW" path="/PSE-1/KRW" vls="110"/>
<sst desc="Konstancin 110 kV" geo="1" lat="52.08" lon="21.1" name="KST" path="/PSE-1/KST" vls="110"/>
<sst desc="Konstilana 110 kV" geo="1" lat="51.75" lon="19.3" name="KTA" path="/PSE-1/KTA" vls="110"/>
<sst desc="Kotuñ 110 kV" geo="1" lat="52.17" lon="22.07" name="KTU" path="/PSE-1/KTU" vls="110"/>
<sst desc="Kutno 110 kV" geo="1" lat="52.23" lon="19.35" name="KUT" path="/PSE-1/KUT" vls="110"/>
<sst desc="Kozuby 110 kV" geo="1" lat="51.48" lon="19.02" name="KZB" path="/PSE-1/KZB" vls="110"/>
<sst desc="Koziny 110 kV" geo="1" lat="51.77" lon="19.42" name="KZN" path="/PSE-1/KZN" vls="110"/>
<sst desc="Aleksandrów 110 kV" geo="1" lat="51.82" lon="19.3" name="LAL" path="/PSE-1/LAL" vls="110"/>
<sst desc="£apy 110 kV" geo="1" lat="52.98" lon="22.87" name="LAP" path="/PSE-1/LAP" vls="110"/>
<sst desc="£aznów 110 kV" geo="1" lat="51.62" lon="19.77" name="LAZ" path="/PSE-1/LAZ" vls="110"/>
<sst desc="Lublinek 110 kV" geo="1" lat="51.72" lon="19.35" name="LBL" path="/PSE-1/LBL" vls="110"/>
<sst desc="£ód¼ Brzeziñska 110 kV" geo="1" lat="51.78" lon="19.55" name="LBR" path="/PSE-1/LBR" vls="110"/>
<sst desc="£ód¼ D±browska 110 kV" geo="1" lat="51.73" lon="19.47" name="LDA" path="/PSE-1/LDA" vls="110"/>
<sst desc="£ód¼ Drewnowska 110 kV" geo="1" lat="51.77" lon="19.43" name="LDR" path="/PSE-1/LDR" vls="110"/>
<sst desc="EC £ód¼ 2 110 kV" geo="1" lat="51.73" lon="19.43" name="LE2" path="/PSE-1/LE2" vls="110,6"/>
<sst desc="EC £ód¼ 3 110 kV" geo="1" lat="51.79" lon="19.41" name="LE3" path="/PSE-1/LE3" vls="110,10"/>
<sst desc="EC £ód¼ 4 110 kV" geo="1" lat="51.73" lon="19.53" name="LE4" path="/PSE-1/LE4" vls="110,10,15"/>
<sst desc="£êczyca 110 kV" geo="1" lat="52.05" lon="19.18" name="LEC" path="/PSE-1/LEC" vls="110"/>
<sst desc="Lewkowo 110 kV" geo="1" lat="52.88" lon="23.68" name="LEW" path="/PSE-1/LEW" vls="110"/>
<sst desc="Legionowo 2 110 kV" geo="1" lat="52.38" lon="20.93" name="LGB" path="/PSE-1/LGB" vls="110"/>
<sst desc="Legionowo Cegielnia 110 kV" geo="1" lat="52.39" lon="20.9" name="LGC" path="/PSE-1/LGC" vls="110"/>
<sst desc="Legionowo 110 kV" geo="1" lat="52.4" lon="20.92" name="LGN" path="/PSE-1/LGN" vls="110"/>
<sst desc="£omianki 110 kV" geo="1" lat="52.33" lon="20.88" name="LKI" path="/PSE-1/LKI" vls="110"/>
<sst desc="£ód¼ Komorniki 110 kV" geo="1" lat="51.71" lon="19.48" name="LKO" path="/PSE-1/LKO" vls="110"/>
<sst desc="£ód¼ Milionowa 110 kV" geo="1" lat="51.74" lon="19.45" name="LML" path="/PSE-1/LML" vls="110"/>
<sst desc="£om¿a Systemowa 400 kV" geo="1" lat="54.47" lon="17.06" name="LMS" path="/PSE-1/LMS" vls="400,15,0.4,0.22,0.23,0.048"/>
<sst desc="£om¿a 2 110 kV" geo="1" lat="53.17" lon="22.07" name="LO2" path="/PSE-1/LO2" vls="110"/>
<sst desc="Lodowa 110 kV" geo="1" lat="51.71" lon="19.51" name="LOD" path="/PSE-1/LOD" vls="110"/>
<sst desc="£ód¼ £±kowa 110 kV" geo="1" lat="51.75" lon="19.43" name="LOL" path="/PSE-1/LOL" vls="110"/>
<sst desc="£om¿a 1 110 kV" geo="1" lat="53.15" lon="22.08" name="LOM" path="/PSE-1/LOM" vls="110"/>
<sst desc="£owicz 1 110 kV" geo="1" lat="52.1" lon="19.93" name="LOW" path="/PSE-1/LOW" vls="110"/>
<sst desc="£ód¼ Retkinia 110 kV" geo="1" lat="51.73" lon="19.38" name="LRE" path="/PSE-1/LRE" vls="110"/>
<sst desc="£ask 2 110 kV" geo="1" lat="51.6" lon="19.15" name="LSB" path="/PSE-1/LSB" vls="110"/>
<sst desc="£ask 1 110 kV" geo="1" lat="51.58" lon="19.1" name="LSK" path="/PSE-1/LSK" vls="110"/>
<sst desc="£ód¼ ¦ródmie¶cie 110 kV" geo="1" lat="51.77" lon="19.45" name="LSM" path="/PSE-1/LSM" vls="110"/>
<sst desc="£uków 110 kV" geo="1" lat="51.93" lon="22.38" name="LUK" path="/PSE-1/LUK" vls="110"/>
<sst desc="£owicz 2 110 kV" geo="1" lat="52.08" lon="19.92" name="LW2" path="/PSE-1/LW2" vls="110"/>
<sst desc="Lidzbark Welski 110 kV" geo="1" lat="53.25" lon="19.82" name="LWE" path="/PSE-1/LWE" vls="110"/>
<sst desc="£ód¼ ¬ród³owa 110 kV" geo="1" lat="51.77" lon="19.47" name="LZR" path="/PSE-1/LZR" vls="110"/>
<sst desc="Ma³kinia 110 kV" geo="1" lat="52.68" lon="22.05" name="MAL" path="/PSE-1/MAL" vls="110"/>
<sst desc="Miêdzylesie 110 kV" geo="1" lat="52.2" lon="21.18" name="MDL" path="/PSE-1/MDL" vls="110"/>
<sst desc="Micha³owo 110 kV" geo="1" lat="53.03" lon="23.6" name="MIC" path="/PSE-1/MIC" vls="110"/>
<sst desc="Mienia 110 kV" geo="1" lat="52.15" lon="21.7" name="MIE" path="/PSE-1/MIE" vls="110"/>
<sst desc="Mi³osna 400/220/110 kV" geo="1" lat="52.22" lon="21.33" name="MIL" path="/PSE-1/MIL" vls="400,220,110,30,20,15,0.4,0.22,0.048"/>
<sst desc="Miñsk 110 kV" geo="1" lat="52.17" lon="21.55" name="MIN" path="/PSE-1/MIN" vls="110"/>
<sst desc="Miko³ajki 110 kV" geo="1" lat="53.8" lon="21.57" name="MKI" path="/PSE-1/MKI" vls="110"/>
<sst desc="Maków 110 kV" geo="1" lat="52.85" lon="21.08" name="MKW" path="/PSE-1/MKW" vls="110"/>
<sst desc="M³awa 110 kV" geo="1" lat="53.12" lon="20.37" name="MLA" path="/PSE-1/MLA" vls="110"/>
<sst desc="Ma¶lana 110 kV" geo="1" lat="51.66" lon="19.37" name="MLN" path="/PSE-1/MLN" vls="110"/>
<sst desc="M³ociny 110 kV" geo="1" lat="52.3" lon="20.92" name="MLO" path="/PSE-1/MLO" vls="110"/>
<sst desc="Moñki 110 kV" geo="1" lat="53.4" lon="22.8" name="MOK" path="/PSE-1/MOK" vls="110"/>
<sst desc="Mory 220/110 kV" geo="1" lat="52.2" lon="20.87" name="MOR" path="/PSE-1/MOR" vls="220,110,15,10,0.4,0.22,0.23,0.048"/>
<sst desc="Mrozy 110 kV" geo="1" lat="52.15" lon="21.8" name="MRO" path="/PSE-1/MRO" vls="110"/>
<sst desc="Mszczonów 110 kV" geo="1" lat="51.97" lon="20.52" name="MSC" path="/PSE-1/MSC" vls="110"/>
<sst desc="Maszewo 110 kV" geo="1" lat="52.57" lon="19.62" name="MSE" path="/PSE-1/MSE" vls="110"/>
<sst desc="Mo¶ciska 400/110 kV" geo="1" lat="52.28" lon="20.85" name="MSK" path="/PSE-1/MSK" vls="400,110,15,0.4,0.23,0.22,0.048"/>
<sst desc="My¶libórz 110 kV" geo="1" lat="51.23" lon="20.12" name="MSL" path="/PSE-1/MSL" vls="110"/>
<sst desc="Myszyniec 110 kV" geo="1" lat="53.37" lon="21.35" name="MYS" path="/PSE-1/MYS" vls="110"/>
<sst desc="MZRiP 2 110 kV" geo="1" lat="52.58" lon="19.65" name="MZ2" path="/PSE-1/MZ2" vls="110"/>
<sst desc="MZRiP 1 110 kV" geo="1" lat="52.58" lon="19.68" name="MZR" path="/PSE-1/MZR" vls="110"/>
<sst desc="Narew 400/110 kV" geo="1" lat="53.02" lon="23.07" name="NAR" path="/PSE-1/NAR" vls="400,110,15,0.4,0.23,0.22,0.048"/>
<sst desc="Nasielsk 110 kV" geo="1" lat="52.58" lon="20.8" name="NAS" path="/PSE-1/NAS" vls="110"/>
<sst desc="Niechodzin 110 kV" geo="1" lat="52.85" lon="20.57" name="NCN" path="/PSE-1/NCN" vls="110"/>
<sst desc="Nida 110 kV" geo="1" lat="53.63" lon="21.53" name="NID" path="/PSE-1/NID" vls="110"/>
<sst desc="Nowy Dwór Mazowiecki 110 kV" geo="1" lat="52.43" lon="20.67" name="NWD" path="/PSE-1/NWD" vls="110"/>
<sst desc="Odlewnia 110 kV" geo="1" lat="51.72" lon="19.82" name="ODL" path="/PSE-1/ODL" vls="110"/>
<sst desc="Olecko 110 kV" geo="1" lat="54.03" lon="22.48" name="OLC" path="/PSE-1/OLC" vls="110"/>
<sst desc="Olechinek 110 kV" geo="1" lat="53.05" lon="20.38" name="OLH" path="/PSE-1/OLH" vls="110"/>
<sst desc="O³tarzew 400/220/110 kV" geo="1" lat="20.45" lon="52.13" name="OLT" path="/PSE-1/OLT" vls="400,220,110,15,0.4,0.048,0.23,0.22"/>
<sst desc="Opoczno 110 kV" geo="1" lat="51.38" lon="20.28" name="OPO" path="/PSE-1/OPO" vls="110"/>
<sst desc="Orzechowo 110 kV" geo="1" lat="52.48" lon="20.84" name="ORZ" path="/PSE-1/ORZ" vls="110"/>
<sst desc="Goworki Ostro³êckie 110 kV" geo="1" lat="53.07" lon="21.6" name="OSG" path="/PSE-1/OSG" vls="110"/>
<sst desc="Ostrów Mazowiecka 110 kV" geo="1" lat="52.8" lon="21.88" name="OSM" path="/PSE-1/OSM" vls="110"/>
<sst desc="Ostro³êka 2 400/220/110 kV" geo="1" lat="53.1" lon="21.63" name="OST" path="/PSE-1/OST" vls="400,220,110,15,6,0.4,0.22,0.048,0.23"/>
<sst desc="El.Ostro³êka A" geo="1" lat="53.1" lon="21.63" name="OSA" path="/PSE-1/OSA" vls="110,6"/>
<sst desc="El.Ostro³êka B" geo="1" lat="53.1" lon="21.63" name="OSB" path="/PSE-1/OSB" vls="220,110,15"/>
<sst desc="Osowiec 110 kV" geo="1" lat="53.5" lon="22.63" name="OSW" path="/PSE-1/OSW" vls="110"/>
<sst desc="Otwock 110 kV" geo="1" lat="52.1" lon="21.27" name="OTW" path="/PSE-1/OTW" vls="110"/>
<sst desc="Ozorków 110 kV" geo="1" lat="51.95" lon="19.28" name="OZK" path="/PSE-1/OZK" vls="110"/>
<sst desc="O¿arów 110 kV" geo="1" lat="52.2" lon="20.78" name="OZR" path="/PSE-1/OZR" vls="110"/>
<sst desc="Pabianice 220/110 kV" geo="1" lat="51.68" lon="19.37" name="PAB" path="/PSE-1/PAB" vls="220,110,15,0.22,0.23,0.048,0.4"/>
<sst desc="Plebanka 110 kV" geo="1" lat="52.42" lon="19.77" name="PBN" path="/PSE-1/PBN" vls="110"/>
<sst desc="Piecki 110 kV" geo="1" lat="52.23" lon="20.25" name="PCK" path="/PSE-1/PCK" vls="110,20"/>
<sst desc="Przetycz 110 kV" geo="1" lat="52.73" lon="21.52" name="PCZ" path="/PSE-1/PCZ" vls="110"/>
<sst desc="Poddêbice 2 110 kV" geo="1" lat="51.89" lon="18.97" name="PDB" path="/PSE-1/PDB" vls="110"/>
<sst desc="Podolszyce 220/110 kV" geo="1" lat="52.53" lon="19.75" name="PDE" path="/PSE-1/PDE" vls="220,110,15,0.4"/>
<sst desc="P³udy 110 kV" geo="1" lat="52.33" lon="20.97" name="PDY" path="/PSE-1/PDY" vls="110"/>
<sst desc="Przedbórz 110 kV" geo="1" lat="51.08" lon="19.87" name="PEB" path="/PSE-1/PEB" vls="110"/>
<sst desc="Piaseczno 220/110 kV" geo="1" lat="52.07" lon="21.02" name="PIA" path="/PSE-1/PIA" vls="220,110,15,10,0.4,0.23,0.22,0.048"/>
<sst desc="Piotrków 220/110 kV" geo="1" lat="51.44" lon="19.71" name="PIO" path="/PSE-1/PIO" vls="220,110,0.4,0.22"/>
<sst desc="Pisz 110 kV" geo="1" lat="53.62" lon="21.8" name="PIS" path="/PSE-1/PIS" vls="110"/>
<sst desc="Piotrków Wschód 110 kV" geo="1" lat="51.4" lon="19.73" name="PIW" path="/PSE-1/PIW" vls="110"/>
<sst desc="Polkolor 110 kV" geo="1" lat="52.05" lon="21.02" name="PKK" path="/PSE-1/PKK" vls="110"/>
<sst desc="P³ock Przemys³owa 110 kV" geo="1" lat="52.55" lon="19.68" name="PL1" path="/PSE-1/PL1" vls="110"/>
<sst desc="Pilawa 110 kV" geo="1" lat="51.95" lon="21.52" name="PLA" path="/PSE-1/PLA" vls="110"/>
<sst desc="P³ock Góry 110 kV" geo="1" lat="52.49" lon="19.65" name="PLG" path="/PSE-1/PLG" vls="110"/>
<sst desc="Polanka 110 kV" geo="1" lat="53.31" lon="23.37" name="PLN" path="/PSE-1/PLN" vls="110"/>
<sst desc="P³ock 400/110 kV" geo="1" lat="52.61" lon="19.7" name="PLO" path="/PSE-1/PLO" vls="400,110,30,15,0.4,0.22,0.23,0.048"/>
<sst desc="Elektrownia PKN Orlen 400/21 kV" geo="0" lat="0" lon="0" name="EPL" path="/PSE-1/EPL" vls="400,20"/>
<sst desc="Pioma 110 kV" geo="1" lat="51.4" lon="19.65" name="PMA" path="/PSE-1/PMA" vls="110"/>
<sst desc="Pomiechówek 110 kV" geo="1" lat="52.47" lon="20.72" name="PMC" path="/PSE-1/PMC" vls="110"/>
<sst desc="P³ock FM¯ 110 kV" geo="1" lat="52.55" lon="19.72" name="PMZ" path="/PSE-1/PMZ" vls="110"/>
<sst desc="P³oñsk 110 kV" geo="1" lat="52.62" lon="20.35" name="PNS" path="/PSE-1/PNS" vls="110"/>
<sst desc="Poddêbice 1 110 kV" geo="1" lat="51.88" lon="18.95" name="POD" path="/PSE-1/POD" vls="110"/>
<sst desc="Pomian 110 kV" geo="1" lat="53.07" lon="21.56" name="PON" path="/PSE-1/PON" vls="110"/>
<sst desc="Powi¶le 110 kV" geo="1" lat="52.23" lon="21.02" name="POW" path="/PSE-1/POW" vls="110"/>
<sst desc="Pruszków 2 110 kV" geo="1" lat="52.15" lon="20.78" name="PR2" path="/PSE-1/PR2" vls="110"/>
<sst desc="Praga 220/110 kV" geo="1" lat="50.16" lon="19.31" name="PRG" path="/PSE-1/PRG" vls="220,110,15,0.4,0.23,0.22,0.048"/>
<sst desc="EC ¯erañ 220/110 kV" geo="0" lat="0" lon="0" name="WZEE" path="/PSE-1/WZEE" vls="6,15,20,110,220"/>
<sst desc="Pruszków 110 kV" geo="1" lat="52.17" lon="20.8" name="PRU" path="/PSE-1/PRU" vls="110,6"/>
<sst desc="Przasnysz 110 kV" geo="1" lat="53.02" lon="20.87" name="PRZ" path="/PSE-1/PRZ" vls="110"/>
<sst desc="" geo="1" lat="54.23" lon="22.65" name="XFI" path="/PSE-1/XFI" vls="110"/>
<sst desc="" geo="1" lat="53.65" lon="22.44" name="XGJ" path="/PSE-1/XGJ" vls="110"/>
<sst desc="" geo="1" lat="53.23" lon="21.89" name="XLO" path="/PSE-1/XLO" vls="110"/>
<sst desc="" geo="1" lat="51.73" lon="19.41" name="XLL" path="/PSE-1/XLL" vls="110"/>
<sst desc="" geo="1" lat="53.08" lon="21.58" name="XPO" path="/PSE-1/XPO" vls="110"/>
<sst desc="" geo="1" lat="53.07" lon="21.62" name="XOS" path="/PSE-1/XOS" vls="110"/>
<sst desc="" geo="1" lat="53.19" lon="21.47" name="XDY" path="/PSE-1/XDY" vls="110"/>
<sst desc="" geo="1" lat="53.01" lon="20.57" name="XGR" path="/PSE-1/XGR" vls="110"/>
<sst desc="" geo="1" lat="52.87" lon="20.61" name="XCH" path="/PSE-1/XCH" vls="110"/>
<sst desc="" geo="1" lat="52.60" lon="20.01" name="XST" path="/PSE-1/XST" vls="110"/>
<sst desc="" geo="1" lat="52.25" lon="19.40" name="XSL" path="/PSE-1/XSL" vls="110"/>
<sst desc="" geo="1" lat="51.80" lon="19.47" name="XDO" path="/PSE-1/XDO" vls="110"/>
<sst desc="" geo="1" lat="51.77" lon="19.35" name="XKZ" path="/PSE-1/XKZ" vls="110"/>
<sst desc="" geo="1" lat="51.79" lon="19.43" name="XZU" path="/PSE-1/XZU" vls="110"/>
<sst desc="" geo="1" lat="51.70" lon="19.40" name="XRU" path="/PSE-1/XRU" vls="110"/>
<sst desc="" geo="1" lat="51.61" lon="19.14" name="XLS" path="/PSE-1/XLS" vls="110"/>
<sst desc="" geo="1" lat="51.20" lon="18.93" name="XSI" path="/PSE-1/XSI" vls="110"/>
<sst desc="" geo="1" lat="51.53" lon="20.01" name="XRO" path="/PSE-1/XRO" vls="110"/>
<sst desc="" geo="1" lat="51.40" lon="19.84" name="XSU" path="/PSE-1/XSU" vls="110"/>
<sst desc="" geo="1" lat="51.09" lon="19.41" name="XRA" path="/PSE-1/XRA" vls="110"/>
<sst desc="" geo="1" lat="52.16" lon="21.70" name="XMI" path="/PSE-1/XMI" vls="110"/>
<sst desc="" geo="1" lat="52.17" lon="21.94" name="XSN" path="/PSE-1/XSN" vls="110"/>
<sst desc="" geo="1" lat="52.17" lon="22.19" name="XSA" path="/PSE-1/XSA" vls="110"/>
<sst desc="" geo="1" lat="53.21" lon="23.18" name="XWA" path="/PSE-1/XWA" vls="110"/>
<sst desc="" geo="1" lat="52.21" lon="21.21" name="XIE" path="/PSE-1/XIE" vls="110"/>
<sst desc="" geo="1" lat="52.19" lon="21.22" name="XIL" path="/PSE-1/XIL" vls="110"/>
<sst desc="" geo="1" lat="52.19" lon="21.01" name="XWB" path="/PSE-1/XWB" vls="110"/>
<sst desc="" geo="1" lat="52.31" lon="20.90" name="XMO" path="/PSE-1/XMO" vls="110"/>
<sst desc="" geo="1" lat="52.29" lon="20.93" name="XWM" path="/PSE-1/XWM" vls="110"/>
<sst desc="" geo="1" lat="52.29" lon="21.11" name="XZB" path="/PSE-1/XZB" vls="110"/>
<sst desc="" geo="1" lat="51.24" lon="19.32" name="XEB" path="/PSE-1/XEB" vls="110"/>
<sst desc="" geo="1" lat="52.05" lon="20.43" name="XSC" path="/PSE-1/XSC" vls="110"/>
<sst desc="" geo="1" lat="52.23" lon="21.24" name="XWL" path="/PSE-1/XWL" vls="110"/>
<sst desc="" geo="0" lat="0" lon="0" name="XPI" path="/PSE-1/XPI" vls="220"/>
<sst desc="Pu³tusk 110 kV" geo="1" lat="52.7" lon="21.07" name="PTK" path="/PSE-1/PTK" vls="110"/>
<sst desc="Pustelnik 110 kV" geo="1" lat="52.31" lon="21.1" name="PTL" path="/PSE-1/PTL" vls="110"/>
<sst desc="Potasznia 110 kV" geo="1" lat="54.15" lon="22.86" name="PTN" path="/PSE-1/PTN" vls="110"/>
<sst desc="Piastów 110 kV" geo="1" lat="52.18" lon="20.83" name="PTW" path="/PSE-1/PTW" vls="110"/>
<sst desc="PZPB Pabianice 110 kV" geo="1" lat="51.65" lon="19.37" name="PZB" path="/PSE-1/PZB" vls="110"/>
<sst desc="Radomsko M³odzowy 110 kV" geo="1" lat="51.08" lon="19.42" name="RA2" path="/PSE-1/RA2" vls="110"/>
<sst desc="Radziwie 110 kV" geo="1" lat="52.52" lon="19.67" name="RAE" path="/PSE-1/RAE" vls="110"/>
<sst desc="Rawa Mazowiecka 110 kV" geo="1" lat="51.77" lon="20.25" name="RAM" path="/PSE-1/RAM" vls="110"/>
<sst desc="Raci±¿ 110 kV" geo="1" lat="52.77" lon="20.1" name="RCI" path="/PSE-1/RCI" vls="110"/>
<sst desc="Radogoszcz 110 kV" geo="1" lat="51.82" lon="19.42" name="RDG" path="/PSE-1/RDG" vls="110"/>
<sst desc="Radzymin 110 kV" geo="1" lat="52.4" lon="21.17" name="RDN" path="/PSE-1/RDN" vls="110"/>
<sst desc="Radomsko 110 kV" geo="1" lat="51.07" lon="19.43" name="RDS" path="/PSE-1/RDS" vls="110"/>
<sst desc="Reja 110 kV" geo="1" lat="54.17" lon="22.92" name="REJ" path="/PSE-1/REJ" vls="110"/>
<sst desc="Rogowiec Stary 110 kV" geo="1" lat="51.27" lon="19.28" name="RGS" path="/PSE-1/RGS" vls="110"/>
<sst desc="Radomsko Komuna Paryska 110 kV" geo="1" lat="51.08" lon="19.38" name="RKP" path="/PSE-1/RKP" vls="110"/>
<sst desc="Rogowiec 400/220 kV" geo="1" lat="51.3" lon="19.32" name="ROG" path="/PSE-1/ROG" vls="400,220"/>
<sst desc="El. Be³chatów 400/220 kV" geo="0" lat="0" lon="0" name="BELE" path="/PSE-1/BELE" vls="400,220,20"/>
<sst desc="Rolland 110 kV" geo="1" lat="51.53" lon="19.99" name="ROL" path="/PSE-1/ROL" vls="110"/>
<sst desc="Ruda 110 kV" geo="1" lat="51.69" lon="19.41" name="RUD" path="/PSE-1/RUD" vls="110"/>
<sst desc="Rudunki 110 kV" geo="1" lat="51.9" lon="19.57" name="RUN" path="/PSE-1/RUN" vls="110"/>
<sst desc="Rusiec 110 kV" geo="1" lat="51.32" lon="18.98" name="RUS" path="/PSE-1/RUS" vls="110"/>
<sst desc="Roszkowa Wola 110 kV" geo="1" lat="51.6" lon="20.4" name="RWL" path="/PSE-1/RWL" vls="110"/>
<sst desc="Sabinka 110 kV" geo="1" lat="52.21" lon="22.16" name="SAB" path="/PSE-1/SAB" vls="110"/>
<sst desc="Szadek 110 kV" geo="1" lat="51.68" lon="18.97" name="SDE" path="/PSE-1/SDE" vls="110"/>
<sst desc="Siedlce 110 kV" geo="1" lat="52.17" lon="22.27" name="SDL" path="/PSE-1/SDL" vls="110"/>
<sst desc="Siedlce My¶liwska 110 kV" geo="1" lat="52.15" lon="22.25" name="SDM" path="/PSE-1/SDM" vls="110"/>
<sst desc="Siedlce Przemys³owe 110 kV" geo="1" lat="52.15" lon="22.28" name="SDP" path="/PSE-1/SDP" vls="110"/>
<sst desc="Siedlce Ujrzanów 400/110 kV" geo="1" lat="52.61" lon="19.7" name="SDU" path="/PSE-1/SDU" vls="400,110,15,0.4,0.23,0.22,0.048"/>
<sst desc="Sejny 110 kV" geo="1" lat="54.1" lon="23.33" name="SEJ" path="/PSE-1/SEJ" vls="110"/>
<sst desc="Serock 110 kV" geo="1" lat="52.5" lon="21.07" name="SEK" path="/PSE-1/SEK" vls="110"/>
<sst desc="Sêkocin 110 kV" geo="1" lat="52.1" lon="20.88" name="SEN" path="/PSE-1/SEN" vls="110"/>
<sst desc="Siemkowice 110 kV" geo="1" lat="51.2" lon="18.88" name="SIM" path="/PSE-1/SIM" vls="110"/>
<sst desc="Skierniewice 110 kV" geo="1" lat="51.95" lon="20.15" name="SKI" path="/PSE-1/SKI" vls="110"/>
<sst desc="Sokó³ka 110 kV" geo="1" lat="53.4" lon="23.5" name="SKK" path="/PSE-1/SKK" vls="110"/>
<sst desc="Sulejówek 110 kV" geo="1" lat="52.24" lon="21.27" name="SLJ" path="/PSE-1/SLJ" vls="110"/>
<sst desc="Sklêczki 110 kV" geo="1" lat="52.2" lon="19.38" name="SLZ" path="/PSE-1/SLZ" vls="110"/>
<sst desc="Siemiatycze 110 kV" geo="1" lat="52.42" lon="22.85" name="SMT" path="/PSE-1/SMT" vls="110"/>
<sst desc="Sosnowe 110 kV" geo="1" lat="52.16" lon="21.94" name="SNE" path="/PSE-1/SNE" vls="110"/>
<sst desc="Sobolew 110 kV" geo="1" lat="51.73" lon="21.67" name="SOB" path="/PSE-1/SOB" vls="110"/>
<sst desc="Sochaczew 220/110 kV" geo="1" lat="52.23" lon="20.25" name="SOC" path="/PSE-1/SOC" vls="220,110,15,0.4,0.22,0.23,0.048"/>
<sst desc="Soko³ów Podlaski 110 kV" geo="1" lat="52.4" lon="22.23" name="SOK" path="/PSE-1/SOK" vls="110"/>
<sst desc="Sieradz 110 kV" geo="1" lat="51.58" lon="18.73" name="SRA" path="/PSE-1/SRA" vls="110"/>
<sst desc="Sierpc 110 kV" geo="1" lat="52.85" lon="19.67" name="SRC" path="/PSE-1/SRC" vls="110"/>
<sst desc="Stobiecko 110 kV" geo="1" lat="51.07" lon="19.39" name="STB" path="/PSE-1/STB" vls="110"/>
<sst desc="Starorudzka 110 kV" geo="1" lat="51.7" lon="19.43" name="STD" path="/PSE-1/STD" vls="110"/>
<sst desc="Stora Enso 110 kV" geo="1" lat="50.8" lon="19.18" name="STE" path="/PSE-1/STE" vls="110"/>
<sst desc="Stoczek £ukowski 110 kV" geo="1" lat="51.95" lon="21.97" name="STL" path="/PSE-1/STL" vls="110"/>
<sst desc="Stanis³awów 400 kV" geo="1" lat="52.27" lon="21.55" name="STN" path="/PSE-1/STN" vls="400,15,0.4,0.23,0.22,0.048"/>
<sst desc="Stryków 110 kV" geo="1" lat="51.9" lon="19.61" name="STR" path="/PSE-1/STR" vls="110"/>
<sst desc="Staro¼leby 110 kV" geo="1" lat="52.63" lon="19.99" name="STZ" path="/PSE-1/STZ" vls="110"/>
<sst desc="Sulejów 110 kV" geo="1" lat="51.35" lon="19.87" name="SUJ" path="/PSE-1/SUJ" vls="110"/>
<sst desc="Suwa³ki 110 kV" geo="1" lat="54.08" lon="22.92" name="SUW" path="/PSE-1/SUW" vls="110"/>
<sst desc="¦wierk 110 kV" geo="1" lat="52.12" lon="21.35" name="SWR" path="/PSE-1/SWR" vls="110"/>
<sst desc="Szeligi 110 kV" geo="1" lat="53.82" lon="22.42" name="SZE" path="/PSE-1/SZE" vls="110"/>
<sst desc="Szkarada 110 kV" geo="1" lat="52.32" lon="19.88" name="SZK" path="/PSE-1/SZK" vls="110"/>
<sst desc="Szreniawa 110 kV" geo="1" lat="51.08" lon="19.85" name="SZR" path="/PSE-1/SZR" vls="110"/>
<sst desc="Tarczyn 110 kV" geo="1" lat="51.98" lon="20.83" name="TAR" path="/PSE-1/TAR" vls="110"/>
<sst desc="Teofilów 110 kV" geo="1" lat="51.8" lon="19.38" name="TEO" path="/PSE-1/TEO" vls="110"/>
<sst desc="Teresin 110 kV" geo="1" lat="52.18" lon="20.4" name="TER" path="/PSE-1/TER" vls="110"/>
<sst desc="Tuczki 110 kV" geo="1" lat="53.35" lon="19.95" name="TKI" path="/PSE-1/TKI" vls="110"/>
<sst desc="T³uszcz 110 kV" geo="1" lat="52.42" lon="21.42" name="TLU" path="/PSE-1/TLU" vls="110"/>
<sst desc="Tomaszów 1 110 kV" geo="1" lat="51.52" lon="20.02" name="TOA" path="/PSE-1/TOA" vls="110"/>
<sst desc="Tomaszów 2 110 kV" geo="1" lat="51.55" lon="20.02" name="TOB" path="/PSE-1/TOB" vls="110"/>
<sst desc="Trêbaczew 400/110 kV" geo="1" lat="51.12" lon="18.92" name="TRE" path="/PSE-1/TRE" vls="400,110,15,0.4,0.23,0.22,0.048"/>
<sst desc="Elektrownia Be³chatów" geo="1" lat="51.12" lon="18.92" name="BEE" path="/PSE-1/BEE" vls="400,27"/>
<sst desc="GSZ1 - Ursus 110 kV" geo="1" lat="52.18" lon="20.89" name="UG1" path="/PSE-1/UG1" vls="110"/>
<sst desc="GSZ2 - Ursus 110 kV" geo="1" lat="52.18" lon="20.87" name="UG2" path="/PSE-1/UG2" vls="110"/>
<sst desc="UTRT" geo="0" lat="0" lon="0" name="UTRT" path="/PSE-1/UTRT" vls=""/>
<sst desc="Wasilków 110 kV" geo="1" lat="53.2" lon="23.2" name="WAS" path="/PSE-1/WAS" vls="110"/>
<sst desc="Warszawa Zachodnia 110 kV" geo="1" lat="52.22" lon="20.96" name="WAZ" path="/PSE-1/WAZ" vls="110"/>
<sst desc="Warszawa Batory 110 kV" geo="1" lat="52.2" lon="21" name="WBA" path="/PSE-1/WBA" vls="110"/>
<sst desc="Warszawa Bemowo 110 kV" geo="1" lat="52.25" lon="20.9" name="WBM" path="/PSE-1/WBM" vls="110"/>
<sst desc="Warszawa Bródno 110 kV" geo="1" lat="52.3" lon="21.05" name="WBR" path="/PSE-1/WBR" vls="110"/>
<sst desc="Wodoci±g 110 kV" geo="1" lat="52.44" lon="20.99" name="WDC" path="/PSE-1/WDC" vls="110"/>
<sst desc="Widok 110 kV" geo="1" lat="51.98" lon="20.14" name="WDK" path="/PSE-1/WDK" vls="110"/>
<sst desc="Wêgrów 110 kV" geo="1" lat="52.42" lon="22.02" name="WEG" path="/PSE-1/WEG" vls="110"/>
<sst desc="FSO Warszawa 110 kV" geo="1" lat="52.28" lon="21" name="WFS" path="/PSE-1/WFS" vls="110"/>
<sst desc="RPZ Warszawa Go³±bki 110kV" geo="1" lat="52.23" lon="21.24" name="WGB" path="/PSE-1/WGB" vls="110"/>
<sst desc="Warszawa Grochów 110 kV" geo="1" lat="52.23" lon="21.08" name="WGC" path="/PSE-1/WGC" vls="110"/>
<sst desc="Warszawa Gdañska 110 kV" geo="1" lat="52.27" lon="20.97" name="WGD" path="/PSE-1/WGD" vls="110"/>
<sst desc="Warszawa Goc³aw 110 kV" geo="1" lat="52.22" lon="21.08" name="WGO" path="/PSE-1/WGO" vls="110"/>
<sst desc="Wêgorzewo 110 kV" geo="1" lat="54.2" lon="21.73" name="WGW" path="/PSE-1/WGW" vls="110"/>
<sst desc="Huta Warszawa 110 kV" geo="1" lat="50.87" lon="15.62" name="WHU" path="/PSE-1/WHU" vls="110"/>
<sst desc="Wistka 110 kV" geo="1" lat="51.13" lon="19.1" name="WIA" path="/PSE-1/WIA" vls="110"/>
<sst desc="Widzew 110 kV" geo="1" lat="51.75" lon="19.52" name="WID" path="/PSE-1/WID" vls="110"/>
<sst desc="Wieliszew 110 kV" geo="1" lat="52.45" lon="20.95" name="WIL" path="/PSE-1/WIL" vls="110"/>
<sst desc="Warszawa Imielin 110 kV" geo="1" lat="52.15" lon="21.02" name="WIM" path="/PSE-1/WIM" vls="110"/>
<sst desc="Wizna 110 kV" geo="1" lat="53.18" lon="22.37" name="WIZ" path="/PSE-1/WIZ" vls="110"/>
<sst desc="Warszawa Jelonki 110 kV" geo="1" lat="52.22" lon="20.9" name="WJE" path="/PSE-1/WJE" vls="110"/>
<sst desc="EC Kawêczyn 110 kV" geo="1" lat="52.27" lon="21.11" name="WKC" path="/PSE-1/WKC" vls="110"/>
<sst desc="Warszawa Kaliszówka 110 kV" geo="1" lat="50.87" lon="15.62" name="WKL" path="/PSE-1/WKL" vls="110"/>
<sst desc="Warszawa Ko³o 110 kV" geo="1" lat="52.23" lon="20.93" name="WKO" path="/PSE-1/WKO" vls="110"/>
<sst desc="Laboratorium 110/15 kV" geo="1" lat="52.23" lon="21.24" name="WLB" path="/PSE-1/WLB" vls="110,15"/>
<sst desc="GPO Wólka 400/110kV" geo="1" lat="52.23" lon="21.24" name="WLK" path="/PSE-1/WLK" vls="400,110"/>
<sst desc="Wo³omin 110 kV" geo="1" lat="52.32" lon="21.2" name="WLM" path="/PSE-1/WLM" vls="110"/>
<sst desc="Wieluñ 110 kV" geo="1" lat="51.22" lon="18.57" name="WLN" path="/PSE-1/WLN" vls="110"/>
<sst desc="Warszawa Mirów 110 kV" geo="1" lat="52.23" lon="20.98" name="WMI" path="/PSE-1/WMI" vls="110"/>
<sst desc="Warszawa M³ynów 110 kV" geo="1" lat="52.24" lon="20.97" name="WMN" path="/PSE-1/WMN" vls="110"/>
<sst desc="Warszawa Natolin 110 kV" geo="1" lat="52.13" lon="21.07" name="WNT" path="/PSE-1/WNT" vls="110"/>
<sst desc="Warszawa Ochota 110 kV" geo="1" lat="52.2" lon="20.97" name="WOC" path="/PSE-1/WOC" vls="110"/>
<sst desc="Warszawa Olszynka Grochowska 110 kV" geo="1" lat="52.24" lon="21.11" name="WOG" path="/PSE-1/WOG" vls="110"/>
<sst desc="Wojciechowice 110 kV" geo="1" lat="53.08" lon="21.61" name="WOJ" path="/PSE-1/WOJ" vls="110,15"/>
<sst desc="Wolbórz 110 kV" geo="1" lat="51.50" lon="19.83" name="WOL" path="/PSE-1/WOL" vls="110"/>
<sst desc="Wo³omin S³oneczna 110 kV" geo="1" lat="52.33" lon="21.22" name="WOM" path="/PSE-1/WOM" vls="110"/>
<sst desc="Warszawa Pa³ac 110 kV" geo="1" lat="52.22" lon="21" name="WPA" path="/PSE-1/WPA" vls="110"/>
<sst desc="Warszawa Po³udniowa 110 kV" geo="1" lat="52.18" lon="21.01" name="WPD" path="/PSE-1/WPD" vls="110"/>
<sst desc="Wronki 110 kV" geo="1" lat="54.26" lon="22.30" name="WRN" path="/PSE-1/WRN" vls="110,20"/>
<sst desc="Warszawa S³u¿ewiec 110 kV" geo="1" lat="52.17" lon="21.03" name="WSC" path="/PSE-1/WSC" vls="110"/>
<sst desc="Wyszogród 110 kV" geo="1" lat="52.38" lon="20.18" name="WSG" path="/PSE-1/WSG" vls="110"/>
<sst desc="EC Siekierki 110 kV" geo="1" lat="52.18" lon="21.08" name="WSI" path="/PSE-1/WSI" vls="110,6,15,10"/>
<sst desc="Warszawa Sielce 110 kV" geo="1" lat="52.2" lon="21.03" name="WSL" path="/PSE-1/WSL" vls="110"/>
<sst desc="Warszawa S³odowiec 110 kV" geo="1" lat="52.27" lon="20.95" name="WSO" path="/PSE-1/WSO" vls="110"/>
<sst desc="Warszawa ¦ródmie¶cie 110 kV" geo="1" lat="52.21" lon="21" name="WSR" path="/PSE-1/WSR" vls="110"/>
<sst desc="Warszawa Stegny 110 kV" geo="1" lat="52.17" lon="21.05" name="WST" path="/PSE-1/WST" vls="110"/>
<sst desc="Warszawa Targówek 110 kV" geo="1" lat="52.27" lon="21.05" name="WTA" path="/PSE-1/WTA" vls="110"/>
<sst desc="Towarowa 220/110 kV" geo="1" lat="52.22" lon="20.98" name="WTO" path="/PSE-1/WTO" vls="220,110,15"/>
<sst desc="Warszawa Tarchomin 110 kV" geo="1" lat="52.32" lon="20.95" name="WTR" path="/PSE-1/WTR" vls="110"/>
<sst desc="Ursus Miasto 110 kV" geo="1" lat="52.17" lon="20.85" name="WUR" path="/PSE-1/WUR" vls="110"/>
<sst desc="Warszawa Ursynów 110 kV" geo="1" lat="52.13" lon="21.02" name="WUS" path="/PSE-1/WUS" vls="110"/>
<sst desc="Warszawa Wola 110 kV" geo="1" lat="52.23" lon="20.95" name="WWO" path="/PSE-1/WWO" vls="110"/>
<sst desc="Warszawa Wschodnia 110 kV" geo="1" lat="52.25" lon="21.08" name="WWS" path="/PSE-1/WWS" vls="110"/>
<sst desc="Wyszków 2 110 kV" geo="1" lat="52.6" lon="21.4" name="WY2" path="/PSE-1/WY2" vls="110"/>
<sst desc="Wydminy 110 kV" geo="1" lat="53.97" lon="22.02" name="WYD" path="/PSE-1/WYD" vls="110"/>
<sst desc="Wysokie Mazowieckie 110 kV" geo="1" lat="52.92" lon="22.5" name="WYM" path="/PSE-1/WYM" vls="110"/>
<sst desc="Wyszków 110 kV" geo="1" lat="52.6" lon="21.43" name="WYS" path="/PSE-1/WYS" vls="110"/>
<sst desc="EC ¯erañ 110 kV" geo="1" lat="52.3" lon="20.98" name="WZE" path="/PSE-1/WZE" vls="110,6,15"/>
<sst desc="Zakrêt 110 kV" geo="1" lat="52.22" lon="21.27" name="ZAK" path="/PSE-1/ZAK" vls="110"/>
<sst desc="Z±bki 110 kV" geo="1" lat="52.29" lon="21.13" name="ZBK" path="/PSE-1/ZBK" vls="110"/>
<sst desc="¯abin 110 kV" geo="1" lat="52.93" lon="21.57" name="ZBN" path="/PSE-1/ZBN" vls="110"/>
<sst desc="Zambrów 110 kV" geo="1" lat="52.97" lon="22.23" name="ZBR" path="/PSE-1/ZBR" vls="110"/>
<sst desc="Z³oczew 110 kV" geo="1" lat="51.4" lon="18.6" name="ZCW" path="/PSE-1/ZCW" vls="110"/>
<sst desc="Zduñska Wola 110 kV" geo="1" lat="51.58" lon="18.95" name="ZDW" path="/PSE-1/ZDW" vls="110"/>
<sst desc="Zgierz 220/110 kV" geo="1" lat="51.85" lon="19.4" name="ZGI" path="/PSE-1/ZGI" vls="220,110,15,0.4,0.22,0.048,0.024"/>
<sst desc="Z³ota 110 kV" geo="1" lat="51.58" lon="18.78" name="ZLO" path="/PSE-1/ZLO" vls="110"/>
<sst desc="Zelów 110 kV" geo="1" lat="51.47" lon="19.22" name="ZLW" path="/PSE-1/ZLW" vls="110"/>
<sst desc="Zak³ady Mechaniczne Wola 110 kV" geo="1" lat="52.22" lon="20.92" name="ZMW" path="/PSE-1/ZMW" vls="110"/>
<sst desc="Warszawa ZPM 110 kV" geo="1" lat="49.6" lon="21.8" name="ZPM" path="/PSE-1/ZPM" vls="110"/>
<sst desc="¯urawia 110 kV" geo="1" lat="51.79" lon="20.47" name="ZRA" path="/PSE-1/ZRA" vls="110"/>
<sst desc="FW ¯uromin 110 kV" geo="1" lat="53.06" lon="19.93" name="ZRF" path="/PSE-1/ZRF" vls="110,20"/>
<sst desc="¯uromin 110 kV" geo="1" lat="53.05" lon="19.9" name="ZRM" path="/PSE-1/ZRM" vls="110"/>
<sst desc="¯ubard¼ 110 kV" geo="1" lat="51.78" lon="19.44" name="ZUB" path="/PSE-1/ZUB" vls="110"/>
<sst desc="Zawady 110 kV" geo="1" lat="52.39" lon="21.93" name="ZWD" path="/PSE-1/ZWD" vls="110"/>
<sst desc="¯ychlin 110 kV" geo="1" lat="52.23" lon="19.62" name="ZYC" path="/PSE-1/ZYC" vls="110"/>
<sst desc="¯yrardów 110 kV" geo="1" lat="52.05" lon="20.43" name="ZYR" path="/PSE-1/ZYR" vls="110"/>
<sst desc="Abramowice 220/110 kV" geo="1" lat="51.18" lon="22.56" name="ABR" path="/PSE-2/ABR" vls="220,110,15,0.4,0.22,0.23,0.048"/>
<sst desc="Annopol 110 kV" geo="1" lat="50.89" lon="21.86" name="ANN" path="/PSE-2/ANN" vls="110"/>
<sst desc="Biskupice WOE 110 kV" geo="1" lat="51.15" lon="22.94" name="BCE" path="/PSE-2/BCE" vls="110"/>
<sst desc="Besko 110 kV" geo="1" lat="49.59" lon="21.96" name="BES" path="/PSE-2/BES" vls="110"/>
<sst desc="Be³¿yce 110 kV" geo="1" lat="51.17" lon="22.27" name="BEZ" path="/PSE-2/BEZ" vls="110"/>
<sst desc="Boguchwa³a 220/110 kV" geo="1" lat="49.98" lon="21.94" name="BGC" path="/PSE-2/BGC" vls="220,110,0.4,0.23,0.22,0.048"/>
<sst desc="Bogdanka 110 kV" geo="1" lat="51.32" lon="23.02" name="BGD" path="/PSE-2/BGD" vls="110"/>
<sst desc="Bia³obrzegi 110 kV" geo="1" lat="51.65" lon="20.94" name="BIB" path="/PSE-2/BIB" vls="110"/>
<sst desc="Biecz 110 kV" geo="1" lat="49.74" lon="21.26" name="BIE" path="/PSE-2/BIE" vls="110"/>
<sst desc="Bi³goraj 110 kV" geo="1" lat="50.55" lon="22.73" name="BIL" path="/PSE-2/BIL" vls="110"/>
<sst desc="Bi³goraj Po³udniowy 110 kV" geo="1" lat="50.52" lon="22.74" name="BIP" path="/PSE-2/BIP" vls="110"/>
<sst desc="Bór 110 kV" geo="1" lat="51.07" lon="20.82" name="BOR" path="/PSE-2/BOR" vls="110"/>
<sst desc="Bia³a Podlaska Sitnicka 110 kV" geo="1" lat="52.05" lon="23.12" name="BPS" path="/PSE-2/BPS" vls="110"/>
<sst desc="Bia³a Podlaska Wola 110 kV" geo="1" lat="52.02" lon="23.09" name="BPW" path="/PSE-2/BPW" vls="110"/>
<sst desc="Bircza 110 kV" geo="1" lat="49.69" lon="22.48" name="BRC" path="/PSE-2/BRC" vls="110"/>
<sst desc="Bronowice 110 kV" geo="1" lat="51.43" lon="21.91" name="BRO" path="/PSE-2/BRO" vls="110"/>
<sst desc="Budzyñ 110 kV" geo="1" lat="51.12" lon="22.1" name="BUD" path="/PSE-2/BUD" vls="110"/>
<sst desc="Busko 110 kV" geo="1" lat="50.46" lon="20.69" name="BUS" path="/PSE-2/BUS" vls="110"/>
<sst desc="Busko Zdrój 110 kV" geo="1" lat="50.48" lon="20.73" name="BUZ" path="/PSE-2/BUZ" vls="110"/>
<sst desc="Bychawa 110 kV" geo="1" lat="51.01" lon="22.53" name="BYH" path="/PSE-2/BYH" vls="110"/>
<sst desc="Brzozów 110 kV" geo="1" lat="49.7" lon="22.02" name="BZW" path="/PSE-2/BZW" vls="110"/>
<sst desc="Cementownia Che³m 1 110 kV" geo="1" lat="51.15" lon="23.53" name="CH1" path="/PSE-2/CH1" vls="110"/>
<sst desc="Cementownia Che³m 2 110 kV" geo="1" lat="51.12" lon="23.53" name="CH2" path="/PSE-2/CH2" vls="110"/>
<sst desc="Che³m Kolejowa 110 kV" geo="1" lat="51.14" lon="23.49" name="CHK" path="/PSE-2/CHK" vls="110"/>
<sst desc="Chmielów 220/110 kV" geo="1" lat="50.51" lon="21.67" name="CHM" path="/PSE-2/CHM" vls="220,110,15,0.4,0.23,0.22,0.048"/>
<sst desc="Che³m Po³udniowa 110 kV" geo="1" lat="51.12" lon="23.49" name="CHP" path="/PSE-2/CHP" vls="110"/>
<sst desc="Chronówek 110 kV" geo="1" lat="51.36" lon="20.94" name="CHR" path="/PSE-2/CHR" vls="110"/>
<sst desc="Che³m 220/110 kV" geo="1" lat="51.16" lon="23.41" name="CHS" path="/PSE-2/CHS" vls="220,110,0.4,0.048"/>
<sst desc="Chmielnik 110 kV" geo="1" lat="50.61" lon="20.75" name="CMI" path="/PSE-2/CMI" vls="110"/>
<sst desc="Cegielnia Ole¶nica 110 kV" geo="1" lat="50.56" lon="21.16" name="CO1" path="/PSE-2/CO1" vls="110"/>
<sst desc="Che³m Pó³noc 110 kV" geo="1" lat="51.13" lon="23.45" name="CPN" path="/PSE-2/CPN" vls="110"/>
<sst desc="Dêblin 110 kV" geo="1" lat="51.57" lon="21.86" name="DBL" path="/PSE-2/DBL" vls="110"/>
<sst desc="Dobieszyn 110 kV" geo="1" lat="51.62" lon="21.19" name="DBN" path="/PSE-2/DBN" vls="110"/>
<sst desc="Drzewica 110 kV" geo="1" lat="51.45" lon="20.47" name="DRZ" path="/PSE-2/DRZ" vls="110"/>
<sst desc="Dynów 110 kV" geo="1" lat="49.81" lon="22.23" name="DYN" path="/PSE-2/DYN" vls="110"/>
<sst desc="Dzia³oszyce 110 kV" geo="1" lat="50.37" lon="20.35" name="DZI" path="/PSE-2/DZI" vls="110"/>
<sst desc="EC Nowa Sarzyna 110 kV" geo="1" lat="50.32" lon="22.3" name="ENS" path="/PSE-2/ENS" vls="110,10"/>
<sst desc="Gerlachów 110 kV" geo="1" lat="50.7" lon="21.79" name="GER" path="/PSE-2/GER" vls="110"/>
<sst desc="Grójec 110 kV" geo="1" lat="51.85" lon="20.87" name="GJC" path="/PSE-2/GJC" vls="110"/>
<sst desc="G³ogów Ma³opolski 110 kV" geo="1" lat="49.99" lon="22.28" name="GLM" path="/PSE-2/GLM" vls="110"/>
<sst desc="Krajowice 'A' 110 kV" geo="1" lat="49.74" lon="21.43" name="GM1" path="/PSE-2/GM1" vls="110"/>
<sst desc="Krajowice 'B' 110 kV" geo="1" lat="49.77" lon="21.42" name="GM2" path="/PSE-2/GM2" vls="110"/>
<sst desc="Grzybów 2 110 kV" geo="1" lat="50.52" lon="21.07" name="GR2" path="/PSE-2/GR2" vls="110"/>
<sst desc="Garbów 110 kV" geo="1" lat="51.35" lon="22.34" name="GRB" path="/PSE-2/GRB" vls="110"/>
<sst desc="Gorzyce 110 kV" geo="1" lat="50.67" lon="21.83" name="GRC" path="/PSE-2/GRC" vls="110"/>
<sst desc="Grzybów 110 kV" geo="1" lat="50.53" lon="21.1" name="GRZ" path="/PSE-2/GRZ" vls="110"/>
<sst desc="Hankówka 110 kV" geo="1" lat="49.74" lon="21.51" name="HAK" path="/PSE-2/HAK" vls="110"/>
<sst desc="Hrubieszów P³d. 110 kV" geo="1" lat="50.83" lon="23.88" name="HRP" path="/PSE-2/HRP" vls="110"/>
<sst desc="Hrubieszów 110 kV" geo="1" lat="50.77" lon="23.91" name="HRU" path="/PSE-2/HRU" vls="110"/>
<sst desc="Huta 0 Stalowa Wola 110 kV" geo="1" lat="50.55" lon="22.02" name="HS0" path="/PSE-2/HS0" vls="110"/>
<sst desc="Huta 1 Stalowa Wola 110 kV" geo="1" lat="50.53" lon="22.05" name="HS1" path="/PSE-2/HS1" vls="110"/>
<sst desc="Huta 2 Stalowa Wola 110 kV" geo="1" lat="50.53" lon="22.05" name="HS2" path="/PSE-2/HS2" vls="110"/>
<sst desc="Huta 3 Stalowa Wola 110 kV" geo="1" lat="50.53" lon="22.05" name="HS3" path="/PSE-2/HS3" vls="110"/>
<sst desc="Huta Szk³a Sandomierz 110 kV" geo="1" lat="50.66" lon="21.74" name="HSS" path="/PSE-2/HSS" vls="110"/>
<sst desc="Husów 110 kV" geo="1" lat="49.99" lon="22.28" name="HUS" path="/PSE-2/HUS" vls="110"/>
<sst desc="Ho³owczyce 110 kV" geo="1" lat="52.29" lon="22.98" name="HWC" path="/PSE-2/HWC" vls="110"/>
<sst desc="Iskra Kielce 110 kV" geo="1" lat="50.87" lon="20.61" name="ISK" path="/PSE-2/ISK" vls="110"/>
<sst desc="Iwonicz 110 kV" geo="1" lat="49.6" lon="21.8" name="IWN" path="/PSE-2/IWN" vls="110"/>
<sst desc="I³¿a 110 kV" geo="1" lat="51.17" lon="21.25" name="IZA" path="/PSE-2/IZA" vls="110"/>
<sst desc="Janów Lubelski 110 kV" geo="1" lat="50.71" lon="22.41" name="JAL" path="/PSE-2/JAL" vls="110"/>
<sst desc="Jaros³aw 110 kV" geo="1" lat="50.02" lon="22.68" name="JAR" path="/PSE-2/JAR" vls="110"/>
<sst desc="Jêdrzejów 2 110 kV" geo="1" lat="50.62" lon="20.27" name="JDD" path="/PSE-2/JDD" vls="110"/>
<sst desc="Jêdrzejów 110 kV" geo="1" lat="50.65" lon="20.31" name="JDJ" path="/PSE-2/JDJ" vls="110"/>
<sst desc="Jedlicze 110 kV" geo="1" lat="50.09" lon="22.00" name="JDL" path="/PSE-2/JDL" vls="110"/>
<sst desc="Jedliñsk 110 kV" geo="1" lat="51.51" lon="21.12" name="JDS" path="/PSE-2/JDS" vls="110"/>
<sst desc="Janów Podlaski 110 kV" geo="1" lat="52.2" lon="23.21" name="JPD" path="/PSE-2/JPD" vls="110"/>
<sst desc="Jaros³aw Pó³noc 110 kV" geo="1" lat="50.04" lon="22.65" name="JRP" path="/PSE-2/JRP" vls="110"/>
<sst desc="Józefów 110 kV" geo="1" lat="50.48" lon="23.05" name="JZF" path="/PSE-2/JZF" vls="110"/>
<sst desc="Kazimierz 110 kV" geo="1" lat="51.32" lon="21.96" name="KAZ" path="/PSE-2/KAZ" vls="110"/>
<sst desc="Kielce Browar Belgia 110 kV" geo="1" lat="50.83" lon="20.61" name="KB1" path="/PSE-2/KB1" vls="110"/>
<sst desc="Kolbuszowa 110 kV" geo="1" lat="50.24" lon="21.76" name="KBS" path="/PSE-2/KBS" vls="110"/>
<sst desc="Kock 110 kV" geo="1" lat="51.64" lon="22.45" name="KCK" path="/PSE-2/KCK" vls="110"/>
<sst desc="EC Kielce 110 kV" geo="1" lat="50.9" lon="20.61" name="KEC" path="/PSE-2/KEC" vls="110"/>
<sst desc="Kra¶nik F£T 110 kV" geo="1" lat="50.96" lon="22.19" name="KF1" path="/PSE-2/KF1" vls="110"/>
<sst desc="Kra¶nik KFWM 110 kV" geo="1" lat="50.94" lon="22.15" name="KF2" path="/PSE-2/KF2" vls="110"/>
<sst desc="Kielce Armatury 110 kV" geo="1" lat="50.88" lon="20.61" name="KIA" path="/PSE-2/KIA" vls="110"/>
<sst desc="Kielce 400/220 kV" geo="1" lat="50.92" lon="20.62" name="KIE" path="/PSE-2/KIE" vls="400,220,15,0.4,0.23,0.22,0.024"/>
<sst desc="Kielce Karczówka 110 kV" geo="1" lat="50.87" lon="20.58" name="KIK" path="/PSE-2/KIK" vls="110"/>
<sst desc="Kielce Niwachlów 110 kV" geo="1" lat="50.89" lon="20.58" name="KIN" path="/PSE-2/KIN" vls="110"/>
<sst desc="Kielce Pó³noc 110 kV" geo="1" lat="50.89" lon="20.66" name="KIP" path="/PSE-2/KIP" vls="110"/>
<sst desc="Kielce ZWM 110 kV" geo="1" lat="50.86" lon="20.63" name="KIZ" path="/PSE-2/KIZ" vls="110"/>
<sst desc="Kije 110 kV" geo="1" lat="50.6" lon="20.57" name="KJE" path="/PSE-2/KJE" vls="110"/>
<sst desc="Klimontów 110 kV" geo="1" lat="50.65" lon="21.45" name="KLM" path="/PSE-2/KLM" vls="110"/>
<sst desc="Klementowice 110 kV" geo="1" lat="51.35" lon="22.14" name="KMT" path="/PSE-2/KMT" vls="110"/>
<sst desc="Kunów 110 kV" geo="1" lat="50.96" lon="21.28" name="KNW" path="/PSE-2/KNW" vls="110"/>
<sst desc="Kozienice 400/220/110 kV" geo="1" lat="51.66" lon="21.45" name="KOZ" path="/PSE-2/KOZ" vls="400,220,110,15,6,0.4,0.23,0.22,0.048"/>
<sst desc="El. Kozienice 400/220/110 kV" geo="0" lat="0" lon="0" name="KOZE" path="/PSE-2/KOZE" vls="400,220,110,15,20"/>
<sst desc="Kielce Po³udnie 110 kV" geo="1" lat="50.85" lon="20.66" name="KPD" path="/PSE-2/KPD" vls="110"/>
<sst desc="Kielce Piaski 220/110 kV" geo="1" lat="50.92" lon="20.65" name="KPK" path="/PSE-2/KPK" vls="220,110,15,0.4,0.23,0.22,0.048"/>
<sst desc="Krosno Huta 110 kV" geo="1" lat="49.67" lon="21.76" name="KRH" path="/PSE-2/KRH" vls="110"/>
<sst desc="Krosno Iskrzynia 400/110 kV" geo="1" lat="49.67" lon="21.85" name="KRI" path="/PSE-2/KRI" vls="400,110,15,0.4,0.22,0.23,0.048"/>
<sst desc="Krosno Podkarpackie 110 kV" geo="1" lat="49.68" lon="21.73" name="KRK" path="/PSE-2/KRK" vls="110"/>
<sst desc="Krosno 110 kV" geo="1" lat="49.71" lon="21.75" name="KRO" path="/PSE-2/KRO" vls="110"/>
<sst desc="Krosno Polmo 110 kV" geo="1" lat="49.66" lon="21.75" name="KRP" path="/PSE-2/KRP" vls="110"/>
<sst desc="Krosno Wisze 110 kV" geo="1" lat="49.7" lon="21.79" name="KRW" path="/PSE-2/KRW" vls="110"/>
<sst desc="Koñskie 110 kV" geo="1" lat="51.17" lon="20.4" name="KSE" path="/PSE-2/KSE" vls="110"/>
<sst desc="Koñskie Polmo 110 kV" geo="1" lat="51.19" lon="20.38" name="KSP" path="/PSE-2/KSP" vls="110"/>
<sst desc="Krasnystaw Roñsko 110 kV" geo="1" lat="49.7" lon="21.79" name="KSR" path="/PSE-2/KSR" vls="110"/>
<sst desc="Krasnystaw 110 kV" geo="1" lat="50.98" lon="23.17" name="KSW" path="/PSE-2/KSW" vls="110"/>
<sst desc="Koñskie Zachód 110 kV" geo="1" lat="51.2" lon="20.42" name="KSZ" path="/PSE-2/KSZ" vls="110"/>
<sst desc="Kazimierza Wielka 110 kV" geo="1" lat="50.27" lon="20.48" name="KWL" path="/PSE-2/KWL" vls="110"/>
<sst desc="Kielce Wschód 110 kV" geo="1" lat="50.87" lon="20.67" name="KWS" path="/PSE-2/KWS" vls="110"/>
<sst desc="Kozienice Miasto 110 kV" geo="1" lat="51.56" lon="21.56" name="KZM" path="/PSE-2/KZM" vls="110"/>
<sst desc="£añcut 110 kV" geo="1" lat="50.07" lon="22.22" name="LAN" path="/PSE-2/LAN" vls="110"/>
<sst desc="Lubaczów 110 kV" geo="1" lat="50.15" lon="23.12" name="LBC" path="/PSE-2/LBC" vls="110"/>
<sst desc="Lubartów 110 kV" geo="1" lat="51.46" lon="22.61" name="LBT" path="/PSE-2/LBT" vls="110"/>
<sst desc="£êczna 110 kV" geo="1" lat="51.3" lon="22.88" name="LCA" path="/PSE-2/LCA" vls="110"/>
<sst desc="Lublin Czuby 110 kV" geo="1" lat="51.23" lon="22.49" name="LCB" path="/PSE-2/LCB" vls="110"/>
<sst desc="Lublin EC2 110 kV" geo="1" lat="51.21" lon="22.5" name="LEC" path="/PSE-2/LEC" vls="110,10"/>
<sst desc="Le¿ajsk Siedlanka 110 kV" geo="1" lat="50.27" lon="22.42" name="LED" path="/PSE-2/LED" vls="110"/>
<sst desc="Lemesany 400 kV" geo="1" lat="49.27" lon="21.97" name="LEM" path="/PSE-2/LEM" vls="400"/>
<sst desc="Lesko 110 kV" geo="1" lat="49.47" lon="22.33" name="LES" path="/PSE-2/LES" vls="110"/>
<sst desc="Le¿ajsk 110 kV" geo="1" lat="50.26" lon="22.4" name="LEZ" path="/PSE-2/LEZ" vls="110"/>
<sst desc="Lublin FSC 1 110 kV" geo="1" lat="51.23" lon="22.59" name="LF1" path="/PSE-2/LF1" vls="110"/>
<sst desc="Lublin FSC 2 110 kV" geo="1" lat="51.24" lon="22.58" name="LF2" path="/PSE-2/LF2" vls="110"/>
<sst desc="Lublin Hajdów 110 kV" geo="1" lat="51.23" lon="22.55" name="LHA" path="/PSE-2/LHA" vls="110"/>
<sst desc="Lublin Pó³noc 110 kV" geo="1" lat="51.27" lon="22.55" name="LPN" path="/PSE-2/LPN" vls="110"/>
<sst desc="Lipsko 110 kV" geo="1" lat="51.16" lon="21.65" name="LPS" path="/PSE-2/LPS" vls="110"/>
<sst desc="£osice 110 kV" geo="1" lat="52.21" lon="22.71" name="LSC" path="/PSE-2/LSC" vls="110"/>
<sst desc="£añcut Fabryka ¦rub 110 kV" geo="1" lat="50.08" lon="22.18" name="LSR" path="/PSE-2/LSR" vls="110"/>
<sst desc="Lublin 400/110 kV" geo="1" lat="51.28" lon="22.61" name="LSY" path="/PSE-2/LSY" vls="400,110,30,0.4"/>
<sst desc="Lubieñ 110 kV" geo="1" lat="51.56" lon="23.31" name="LUB" path="/PSE-2/LUB" vls="110"/>
<sst desc="Lublin Czechów 110 kV" geo="1" lat="51.27" lon="22.54" name="LUC" path="/PSE-2/LUC" vls="110"/>
<sst desc="Lublin Elektrownia 110 kV" geo="1" lat="51.22" lon="22.57" name="LUE" path="/PSE-2/LUE" vls="110"/>
<sst desc="Lublin UMCS 110 kV" geo="1" lat="51.27" lon="22.49" name="LUN" path="/PSE-2/LUN" vls="110"/>
<sst desc="Lublin Odlewnia 110 kV" geo="1" lat="51.26" lon="22.6" name="LUO" path="/PSE-2/LUO" vls="110"/>
<sst desc="Lublin ¦ródmie¶cie 110 kV" geo="1" lat="51.23" lon="22.54" name="LUS" path="/PSE-2/LUS" vls="110"/>
<sst desc="Lublin X 110 kV" geo="1" lat="51.21" lon="22.59" name="LUX" path="/PSE-2/LUX" vls="110"/>
<sst desc="Lublin Wschód 110 kV" geo="1" lat="51.26" lon="22.57" name="LWS" path="/PSE-2/LWS" vls="110"/>
<sst desc="Machów GPZ1 110 kV" geo="1" lat="50.54" lon="21.63" name="MAA" path="/PSE-2/MAA" vls="110"/>
<sst desc="Machów 110 kV" geo="1" lat="50.54" lon="21.57" name="MAC" path="/PSE-2/MAC" vls="110"/>
<sst desc="Macoszyn 110 kV" geo="1" lat="51.38" lon="23.51" name="MAN" path="/PSE-2/MAN" vls="110"/>
<sst desc="Ma³ogoszcz Cementownia 110kV" geo="1" lat="50.81" lon="20.27" name="MCE" path="/PSE-2/MCE" vls="110"/>
<sst desc="Miechów 110 kV" geo="1" lat="50.36" lon="20.03" name="MCH" path="/PSE-2/MCH" vls="110"/>
<sst desc="Miêdzyrzecz 110 kV" geo="1" lat="51.99" lon="22.78" name="MDC" path="/PSE-2/MDC" vls="110"/>
<sst desc="Medyka 110 kV" geo="1" lat="49.8" lon="22.92" name="MED" path="/PSE-2/MED" vls="110"/>
<sst desc="Mogielnica 110 kV" geo="1" lat="51.69" lon="20.72" name="MGL" path="/PSE-2/MGL" vls="110"/>
<sst desc="Michalczew 110 kV" geo="1" lat="51.84" lon="21.11" name="MIC" path="/PSE-2/MIC" vls="110"/>
<sst desc="Mokre 220/110 kV" geo="1" lat="50.69" lon="23.19" name="MKR" path="/PSE-2/MKR" vls="220,110,15,0.4,0.23,0.22,0.048"/>
<sst desc="Mielec 110 kV" geo="1" lat="50.29" lon="21.41" name="MLE" path="/PSE-2/MLE" vls="110"/>
<sst desc="Ma³ogoszcz 110 kV" geo="1" lat="50.82" lon="20.24" name="MLG" path="/PSE-2/MLG" vls="110"/>
<sst desc="Mielec Smoczka 110 kV" geo="1" lat="50.28" lon="21.47" name="MLS" path="/PSE-2/MLS" vls="110"/>
<sst desc="Mielec WSK 110 kV" geo="1" lat="50.32" lon="21.47" name="MLW" path="/PSE-2/MLW" vls="110,6"/>
<sst desc="Morawica 110 kV" geo="1" lat="50.74" lon="20.63" name="MRW" path="/PSE-2/MRW" vls="110"/>
<sst desc="Munina 110 kV" geo="1" lat="49.99" lon="22.74" name="MUN" path="/PSE-2/MUN" vls="110"/>
<sst desc="Na³êczów 110 kV" geo="1" lat="51.29" lon="22.21" name="NAL" path="/PSE-2/NAL" vls="110"/>
<sst desc="Nowa Dêba 110 kV" geo="1" lat="50.41" lon="21.75" name="NDE" path="/PSE-2/NDE" vls="110"/>
<sst desc="Nieg³owice 110 kV" geo="1" lat="49.72" lon="21.42" name="NGW" path="/PSE-2/NGW" vls="110"/>
<sst desc="Nisko 110 kV" geo="1" lat="50.52" lon="22.14" name="NIS" path="/PSE-2/NIS" vls="110"/>
<sst desc="Nowiny 2 110 kV" geo="1" lat="50.8" lon="20.55" name="NO2" path="/PSE-2/NO2" vls="110"/>
<sst desc="Nadrybie 110 kV" geo="1" lat="51.35" lon="23.04" name="NRB" path="/PSE-2/NRB" vls="110"/>
<sst desc="Nowa S³upia 110 kV" geo="1" lat="50.86" lon="21.09" name="NSP" path="/PSE-2/NSP" vls="110"/>
<sst desc="Cegielnia Ole¶nica 110 kV" geo="1" lat="50.32" lon="21.07" name="OC1" path="/PSE-2/OC1" vls="110"/>
<sst desc="Ostrowiec Huta GSZ1 110 kV" geo="1" lat="50.95" lon="21.45" name="OH1" path="/PSE-2/OH1" vls="110"/>
<sst desc="Ostrowiec Huta GSZ3 110 kV" geo="1" lat="50.96" lon="21.37" name="OH3" path="/PSE-2/OH3" vls="110"/>
<sst desc="Opole Lubelskie 110 kV" geo="1" lat="51.15" lon="21.97" name="OLE" path="/PSE-2/OLE" vls="110"/>
<sst desc="Olendry 110 kV" geo="1" lat="50.56" lon="21.93" name="OLY" path="/PSE-2/OLY" vls="110"/>
<sst desc="Oleszno 110 kV" geo="1" lat="50.94" lon="20.04" name="OLZ" path="/PSE-2/OLZ" vls="110"/>
<sst desc="Opatów 110 kV" geo="1" lat="50.8" lon="21.42" name="OPT" path="/PSE-2/OPT" vls="110"/>
<sst desc="Ostrowiec 400/110 kV" geo="1" lat="50.95" lon="21.4" name="OSC" path="/PSE-2/OSC" vls="400,110"/>
<sst desc="Ostrowiec GPZ2 110 kV" geo="1" lat="50.92" lon="21.44" name="OSG" path="/PSE-2/OSG" vls="110"/>
<sst desc="Ostrowiec Huta 110 kV" geo="1" lat="50.93" lon="21.35" name="OSH" path="/PSE-2/OSH" vls="110"/>
<sst desc="Siarka Osiek 110 kV" geo="1" lat="50.5" lon="21.28" name="OSK" path="/PSE-2/OSK" vls="110"/>
<sst desc="Ostrowiec Piecowa 110 kV" geo="1" lat="50.98" lon="21.39" name="OSP" path="/PSE-2/OSP" vls="110"/>
<sst desc="Ostrowiec GPZ3 110 kV" geo="1" lat="50.91" lon="21.35" name="OST" path="/PSE-2/OST" vls="110"/>
<sst desc="Ostrowiec GPZ1 110 kV" geo="1" lat="50.94" lon="21.39" name="OSW" path="/PSE-2/OSW" vls="110"/>
<sst desc="O¿arów Cementownia 110 kV" geo="1" lat="50.9" lon="21.64" name="OZC" path="/PSE-2/OZC" vls="110"/>
<sst desc="O¿arów Miasto 110 kV" geo="1" lat="50.88" lon="21.67" name="OZM" path="/PSE-2/OZM" vls="110"/>
<sst desc="Parczew 110 kV" geo="1" lat="51.63" lon="22.89" name="PAR" path="/PSE-2/PAR" vls="110"/>
<sst desc="Podem³ynek 110 kV" geo="1" lat="51.11" lon="20.91" name="PDN" path="/PSE-2/PDN" vls="110"/>
<sst desc="Po³aniec 400/220/110 kV" geo="1" lat="50.43" lon="21.27" name="PEL" path="/PSE-2/PEL" vls="400,220,110,15,6,0.4,0.22,0.048,0.23"/>
<sst desc="El. Po³aniec 400/220/110 kV" geo="0" lat="0" lon="0" name="POL" path="/PSE-2/POL" vls="400,220,110,6,15,0.6"/>
<sst desc="Piñczów 110 kV" geo="1" lat="50.51" lon="20.53" name="PIN" path="/PSE-2/PIN" vls="110"/>
<sst desc="Pionki 110 kV" geo="1" lat="51.48" lon="21.48" name="PIO" path="/PSE-2/PIO" vls="110"/>
<sst desc="Pionki Pronit 110 kV" geo="1" lat="51.47" lon="21.44" name="PKI" path="/PSE-2/PKI" vls="110"/>
<sst desc="Pu³awy Kêpa 110 kV" geo="1" lat="51.41" lon="21.93" name="PLK" path="/PSE-2/PLK" vls="110"/>
<sst desc="Pu³awy Rudy 110 kV" geo="1" lat="51.41" lon="21.99" name="PLW" path="/PSE-2/PLW" vls="110"/>
<sst desc="Poniatowa EDA 110 kV" geo="1" lat="51.18" lon="22.02" name="PNE" path="/PSE-2/PNE" vls="110"/>
<sst desc="Poniatowa 110 kV" geo="1" lat="51.19" lon="22.06" name="PNT" path="/PSE-2/PNT" vls="110"/>
<sst desc="Poturzyn 110 kV" geo="1" lat="50.56" lon="23.98" name="POT" path="/PSE-2/POT" vls="110"/>
<sst desc="Pomiary wprowadzane rêcznie" geo="0" lat="0" lon="0" name="PR" path="/PSE-2/PR" vls="888"/>
<sst desc="ZPP Przemy¶l 110 kV" geo="1" lat="49.77" lon="22.82" name="PRP" path="/PSE-2/PRP" vls="110"/>
<sst desc="Przeworsk 110 kV" geo="1" lat="50.05" lon="22.5" name="PRW" path="/PSE-2/PRW" vls="110"/>
<sst desc="Przysucha 110 kV" geo="1" lat="51.35" lon="20.63" name="PSA" path="/PSE-2/PSA" vls="110"/>
<sst desc="" geo="1" lat="51.43" lon="20.45" name="XDR" path="/PSE-2/XDR" vls="110"/>
<sst desc="" geo="1" lat="51.05" lon="20.81" name="XSU" path="/PSE-2/XSU" vls="110"/>
<sst desc="" geo="1" lat="51.08" lon="20.86" name="XZM" path="/PSE-2/XZM" vls="110"/>
<sst desc="" geo="1" lat="51.15" lon="20.84" name="XBR" path="/PSE-2/XBR" vls="110"/>
<sst desc="" geo="1" lat="50.84" lon="20.60" name="XKB" path="/PSE-2/XKB" vls="110"/>
<sst desc="" geo="1" lat="50.97" lon="21.29" name="XKN" path="/PSE-2/XKN" vls="110"/>
<sst desc="" geo="1" lat="51.38" lon="21.13" name="XRZ" path="/PSE-2/XRZ" vls="110"/>
<sst desc="" geo="1" lat="51.82" lon="21.10" name="XMI" path="/PSE-2/XMI" vls="110"/>
<sst desc="" geo="1" lat="51.34" lon="22.12" name="XKM" path="/PSE-2/XKM" vls="110"/>
<sst desc="" geo="1" lat="51.29" lon="22.15" name="XNA" path="/PSE-2/XNA" vls="110"/>
<sst desc="" geo="1" lat="51.21" lon="22.57" name="XLU" path="/PSE-2/XLU" vls="110"/>
<sst desc="" geo="1" lat="51.21" lon="22.69" name="XSD" path="/PSE-2/XSD" vls="110"/>
<sst desc="" geo="1" lat="50.73" lon="23.27" name="XMM" path="/PSE-2/XMM" vls="110"/>
<sst desc="" geo="1" lat="50.57" lon="22.08" name="XSW" path="/PSE-2/XSW" vls="110"/>
<sst desc="" geo="1" lat="50.58" lon="22.08" name="XHS" path="/PSE-2/XHS" vls="110"/>
<sst desc="" geo="1" lat="50.705" lon="21.80" name="XGE" path="/PSE-2/XGE" vls="110"/>
<sst desc="" geo="1" lat="49.78" lon="22.78" name="XPR" path="/PSE-2/XPR" vls="110"/>
<sst desc="" geo="1" lat="49.51" lon="22.27" name="XZA" path="/PSE-2/XZA" vls="110"/>
<sst desc="" geo="1" lat="50.27" lon="22.39" name="XLE" path="/PSE-2/XLE" vls="110"/>
<sst desc="" geo="1" lat="50.46" lon="20.73" name="XBU" path="/PSE-2/XBU" vls="110"/>
<sst desc="" geo="1" lat="50.47" lon="20.92" name="XST" path="/PSE-2/XST" vls="110"/>
<sst desc="" geo="1" lat="50.37" lon="20.40" name="XDZ" path="/PSE-2/XDZ" vls="110"/>
<sst desc="" geo="1" lat="51.13" lon="23.51" name="XCH" path="/PSE-2/XCH" vls="110"/>
<sst desc="" geo="1" lat="50.60" lon="22.00" name="XAC" path="/PSE-2/XAC" vls="220"/>
<sst desc="" geo="1" lat="49.78" lon="22.78" name="XKR" path="/PSE-2/XKR" vls="110"/>
<sst desc="Kozienice 400 kV - Lublin 400 kV - S³up nr 88" geo="0" lat="0" lon="0" name="KOZ4-LSY4-88" path="/PSE-2/KOZ4-LSY4-88" vls="400"/>
<sst desc="Kozienice 400 kV - Lublin 400 kV - S³up nr 89" geo="0" lat="0" lon="0" name="KOZ4-LSY4-89" path="/PSE-2/KOZ4-LSY4-89" vls="400"/>
<sst desc="Kozienice 220 kV - Pu³awy 220 kV - S³up nr 102" geo="0" lat="0" lon="0" name="KOZ2-PUL2-102" path="/PSE-2/KOZ2-PUL2-102" vls="400"/>
<sst desc="Kozienice 220 kV - Pu³awy 220 kV - S³up nr 103" geo="0" lat="0" lon="0" name="KOZ2-PUL2-103" path="/PSE-2/KOZ2-PUL2-103" vls="400"/>
<sst desc="Po³aniec 400 kV - Tarnów 400 kV - Klikowa 220 kV - S³up nr 8" geo="0" lat="0" lon="0" name="PEL4-TAW4-KLA2-8" path="/PSE-2/PEL4-TAW4-KLA2-8" vls="400"/>
<sst desc="Po³aniec 400 kV - Tarnów 400 kV - Klikowa 220 kV - S³up nr 9" geo="0" lat="0" lon="0" name="PEL4-TAW4-KLA2-9" path="/PSE-2/PEL4-TAW4-KLA2-9" vls="400"/>
<sst desc="Po³aniec 400 kV - Tarnów 400 kV - Rzeszów 400 kV - Tuczniawa 400 kV - S³up nr 238/1" geo="1" lat="20.513669" lon="49.5736" name="PEL4-TAW4-RZE4-TCN4-238-1" path="/PSE-2/PEL4-TAW4-RZE4-TCN4-238-1" vls="400"/>
<sst desc="Piaseczno WOE 110 kV" geo="1" lat="50.54" lon="21.52" name="PSN" path="/PSE-2/PSN" vls="110"/>
<sst desc="Pu³awy 220 kV" geo="1" lat="51.44" lon="22.01" name="PUL" path="/PSE-2/PUL" vls="220"/>
<sst desc="Przemy¶l Bakoñczyce 110 kV" geo="1" lat="49.76" lon="22.74" name="PZB" path="/PSE-2/PZB" vls="110"/>
<sst desc="Przemy¶l 110 kV" geo="1" lat="49.82" lon="22.77" name="PZL" path="/PSE-2/PZL" vls="110"/>
<sst desc="Przemy¶l Przekopana 110 kV" geo="1" lat="49.8" lon="22.78" name="PZP" path="/PSE-2/PZP" vls="110"/>
<sst desc="Radom Centralna 110 kV" geo="1" lat="51.4" lon="21.13" name="RAC" path="/PSE-2/RAC" vls="110"/>
<sst desc="Radkowice 220/110 kV" geo="1" lat="50.79" lon="20.49" name="RAD" path="/PSE-2/RAD" vls="220,110,15,0.4,0.22,0.23,0.048"/>
<sst desc="Radom EC 110 kV" geo="1" lat="51.43" lon="21.23" name="RAE" path="/PSE-2/RAE" vls="110"/>
<sst desc="Radzyñ 110 kV" geo="1" lat="51.78" lon="22.62" name="RAN" path="/PSE-2/RAN" vls="110"/>
<sst desc="Radom Zam³ynie 110 kV" geo="1" lat="51.4" lon="21.1" name="RAZ" path="/PSE-2/RAZ" vls="110"/>
<sst desc="RCN Radom" geo="1" lat="50.92" lon="21.09" name="RCN2" path="/PSE-2/RCN2" vls="0.4"/>
<sst desc="Radzice 110 kV" geo="1" lat="51.45" lon="20.4" name="RDC" path="/PSE-2/RDC" vls="110"/>
<sst desc="Rzeszów EC 110 kV" geo="1" lat="50.06" lon="22.04" name="REC" path="/PSE-2/REC" vls="110,10"/>
<sst desc="Rejowiec 110 kV" geo="1" lat="51.11" lon="23.25" name="REJ" path="/PSE-2/REJ" vls="110"/>
<sst desc="Radom Go³êbiów 110 kV" geo="1" lat="51.42" lon="21.19" name="RGO" path="/PSE-2/RGO" vls="110"/>
<sst desc="Rafineria Nafty Jas³o 110 kV" geo="1" lat="49.7" lon="21.49" name="RNJ" path="/PSE-2/RNJ" vls="110"/>
<sst desc="Rzeszów Nowe Miasto 110 kV" geo="1" lat="50.04" lon="22.05" name="RNM" path="/PSE-2/RNM" vls="110"/>
<sst desc="Ropczyce 110 kV" geo="1" lat="50.06" lon="21.63" name="ROP" path="/PSE-2/ROP" vls="110"/>
<sst desc="Ro¿ki 220/110 kV" geo="1" lat="51.33" lon="21.04" name="ROZ" path="/PSE-2/ROZ" vls="220,110"/>
<sst desc="Radom Po³udnie 110 kV" geo="1" lat="51.37" lon="21.17" name="RPD" path="/PSE-2/RPD" vls="110"/>
<sst desc="Radom Potkanów 110 kV" geo="1" lat="51.35" lon="21.1" name="RPK" path="/PSE-2/RPK" vls="110"/>
<sst desc="Radom Pó³noc 110 kV" geo="1" lat="51.43" lon="21.15" name="RPN" path="/PSE-2/RPN" vls="110"/>
<sst desc="Rudnik 110 kV" geo="1" lat="50.44" lon="22.24" name="RUD" path="/PSE-2/RUD" vls="110"/>
<sst desc="Ryki 110 kV" geo="1" lat="51.62" lon="21.93" name="RYK" path="/PSE-2/RYK" vls="110"/>
<sst desc="Rzeszów Baranówka 110 kV" geo="1" lat="50.05" lon="21.97" name="RZB" path="/PSE-2/RZB" vls="110"/>
<sst desc="Rzeszów Centralny 110 kV" geo="1" lat="50.04" lon="22.02" name="RZC" path="/PSE-2/RZC" vls="110"/>
<sst desc="Rzeszów DMS 110 kV" geo="1" lat="50.02" lon="21.97" name="RZD" path="/PSE-2/RZD" vls="110"/>
<sst desc="Rzeszów 750/400/110 kV" geo="1" lat="50.07" lon="21.95" name="RZE" path="/PSE-2/RZE" vls="750,400,110,15,0.4,0.22"/>
<sst desc="Rzeszów Krasne 110 kV" geo="1" lat="50.05" lon="22.09" name="RZK" path="/PSE-2/RZK" vls="110"/>
<sst desc="Radom ZM 110 kV" geo="1" lat="51.38" lon="21.15" name="RZM" path="/PSE-2/RZM" vls="110"/>
<sst desc="Rzeszów Staromie¶cie 110 kV" geo="1" lat="50.04" lon="21.99" name="RZS" path="/PSE-2/RZS" vls="110"/>
<sst desc="Rzeszów WSK 110 kV" geo="1" lat="50.01" lon="22.01" name="RZW" path="/PSE-2/RZW" vls="110"/>
<sst desc="Rzeszów Zaczernie 110 kV" geo="1" lat="50.09" lon="22.00" name="RZZ" path="/PSE-2/RZZ" vls="110"/>
<sst desc="Sandomierz 110 kV" geo="1" lat="50.7" lon="21.76" name="SAN" path="/PSE-2/SAN" vls="110"/>
<sst desc="Sarzyna 110 kV" geo="1" lat="50.35" lon="22.34" name="SAR" path="/PSE-2/SAR" vls="110"/>
<sst desc="Stawiany 110 kV" geo="1" lat="50.59" lon="20.6" name="SAW" path="/PSE-2/SAW" vls="110"/>
<sst desc="¦widnik WSK1 110 kV" geo="1" lat="51.22" lon="22.71" name="SD1" path="/PSE-2/SD1" vls="110"/>
<sst desc="¦widnik WSK2 110 kV" geo="1" lat="51.2" lon="22.69" name="SD2" path="/PSE-2/SD2" vls="110"/>
<sst desc="Szyd³owiec 110 kV" geo="1" lat="51.22" lon="20.84" name="SDC" path="/PSE-2/SDC" vls="110"/>
<sst desc="¦widnik 110 kV" geo="1" lat="51.19" lon="22.67" name="SDK" path="/PSE-2/SDK" vls="110"/>
<sst desc="Sêdziszów 110 kV" geo="1" lat="50.56" lon="20.06" name="SDS" path="/PSE-2/SDS" vls="110"/>
<sst desc="Sêdziszów Ma³opolski 110 kV" geo="1" lat="50.07" lon="21.7" name="SED" path="/PSE-2/SED" vls="110"/>
<sst desc="Sanok 110 kV" geo="1" lat="49.53" lon="22.2" name="SNK" path="/PSE-2/SNK" vls="110"/>
<sst desc="Sanok Trepcza 110 kV" geo="1" lat="49.58" lon="22.18" name="SNT" path="/PSE-2/SNT" vls="110"/>
<sst desc="Sieniawa 110 kV" geo="1" lat="50.17" lon="22.61" name="SNW" path="/PSE-2/SNW" vls="110"/>
<sst desc="Soko³ów 110 kV" geo="1" lat="50.23" lon="22.12" name="SOK" path="/PSE-2/SOK" vls="110"/>
<sst desc="Solina 110 kV" geo="1" lat="49.4" lon="22.45" name="SOL" path="/PSE-2/SOL" vls="110,10"/>
<sst desc="Skar¿ysko Po³udnie 110 kV" geo="1" lat="51.09" lon="20.89" name="SPD" path="/PSE-2/SPD" vls="110"/>
<sst desc="St±porków 110 kV" geo="1" lat="51.14" lon="20.55" name="SPK" path="/PSE-2/SPK" vls="110"/>
<sst desc="Skar¿ysko Pó³noc 110 kV" geo="1" lat="51.14" lon="20.89" name="SPL" path="/PSE-2/SPL" vls="110"/>
<sst desc="Staroniwa 110 kV" geo="1" lat="50.03" lon="21.96" name="SRN" path="/PSE-2/SRN" vls="110"/>
<sst desc="¦wier¿e 110 kV" geo="1" lat="51.63" lon="21.48" name="SRZ" path="/PSE-2/SRZ" vls="110"/>
<sst desc="Staszów 110 kV" geo="1" lat="50.56" lon="21.16" name="STA" path="/PSE-2/STA" vls="110"/>
<sst desc="Starachowice 110 kV" geo="1" lat="51.04" lon="21.08" name="STC" path="/PSE-2/STC" vls="110"/>
<sst desc="Starachowice Dolne 110 kV" geo="1" lat="51" lon="21.07" name="STD" path="/PSE-2/STD" vls="110"/>
<sst desc="Stefanów 110 kV" geo="1" lat="51.31" lon="23.05" name="STE" path="/PSE-2/STE" vls="110"/>
<sst desc="Starachowice FSC 110 kV" geo="1" lat="51.05" lon="21.02" name="STF" path="/PSE-2/STF" vls="110"/>
<sst desc="Starachowice Górne 110 kV" geo="1" lat="51.06" lon="21.11" name="STG" path="/PSE-2/STG" vls="110"/>
<sst desc="Stomil Sanok 110 kV" geo="1" lat="49.56" lon="22.22" name="STM" path="/PSE-2/STM" vls="110"/>
<sst desc="Stopnica 110 kV" geo="1" lat="50.44" lon="20.94" name="STN" path="/PSE-2/STN" vls="110"/>
<sst desc="Starachowice Pó³noc 110 kV" geo="1" lat="51.07" lon="21.09" name="STP" path="/PSE-2/STP" vls="110"/>
<sst desc="Stalowa Wola 220/110 kV" geo="1" lat="50.55" lon="22.09" name="STW" path="/PSE-2/STW" vls="220,110,15,6,0.4,0.22,0.23,0.048,10"/>
<sst desc="Elektrownia Stalowa Wola " geo="0" lat="0" lon="0" name="STWE" path="/PSE-2/STWE" vls="220,15"/>
<sst desc="Strzy¿ów 110 kV" geo="1" lat="49.87" lon="21.79" name="STY" path="/PSE-2/STY" vls="110"/>
<sst desc="Suchedniów 110 kV" geo="1" lat="51.05" lon="20.83" name="SUW" path="/PSE-2/SUW" vls="110"/>
<sst desc="Stalowa Wola Posanie 110 kV" geo="1" lat="50.59" lon="22.03" name="SWD" path="/PSE-2/SWD" vls="110"/>
<sst desc="Stalowa Wola Miasto 110 kV" geo="1" lat="50.57" lon="22.06" name="SWM" path="/PSE-2/SWM" vls="110"/>
<sst desc="Szczebrzeszyn 110 kV" geo="1" lat="50.7" lon="22.98" name="SZN" path="/PSE-2/SZN" vls="110"/>
<sst desc="Tarnogród 110 kV" geo="1" lat="50.36" lon="22.74" name="TGD" path="/PSE-2/TGD" vls="110"/>
<sst desc="Tarnobrzeg 110 kV" geo="1" lat="50.57" lon="21.68" name="TNB" path="/PSE-2/TNB" vls="110"/>
<sst desc="Tomaszów Po³udnie 110 kV" geo="1" lat="50.43" lon="23.41" name="TOE" path="/PSE-2/TOE" vls="110"/>
<sst desc="Tomaszów Pó³noc 110 kV" geo="1" lat="50.47" lon="23.39" name="TOL" path="/PSE-2/TOL" vls="110"/>
<sst desc="Trze¶ñ 110 kV" geo="1" lat="50.56" lon="21.78" name="TSN" path="/PSE-2/TSN" vls="110"/>
<sst desc="Trzuskawica 110 kV" geo="1" lat="50.79" lon="20.57" name="TSW" path="/PSE-2/TSW" vls="110"/>
<sst desc="Tyszowce 110 kV" geo="1" lat="50.61" lon="23.71" name="TYS" path="/PSE-2/TYS" vls="110"/>
<sst desc="Ulhówek 110 kV" geo="1" lat="50.45" lon="23.78" name="ULH" path="/PSE-2/ULH" vls="110"/>
<sst desc="Ustrzyki 110 kV" geo="1" lat="49.43" lon="22.59" name="USR" path="/PSE-2/USR" vls="110"/>
<sst desc="UTRT" geo="0" lat="0" lon="0" name="UTRT" path="/PSE-2/UTRT" vls=""/>
<sst desc="Warka 110 kV" geo="1" lat="51.78" lon="21.19" name="WAR" path="/PSE-2/WAR" vls="110"/>
<sst desc="Wisznice 110 kV" geo="1" lat="51.79" lon="23.2" name="WCE" path="/PSE-2/WCE" vls="110"/>
<sst desc="Wólka Dobryñska 110 kV" geo="1" lat="52.03" lon="23.47" name="WDO" path="/PSE-2/WDO" vls="110"/>
<sst desc="Wróblik Królewski 110 kV" geo="1" lat="49.6" lon="21.8" name="WKR" path="/PSE-2/WKR" vls="110"/>
<sst desc="Wolica 110 kV" geo="1" lat="50.75" lon="20.48" name="WLI" path="/PSE-2/WLI" vls="110"/>
<sst desc="W³odawa 110 kV" geo="1" lat="51.54" lon="23.55" name="WLO" path="/PSE-2/WLO" vls="110"/>
<sst desc="Wystêpa 110 kV" geo="1" lat="50.98" lon="20.74" name="WSP" path="/PSE-2/WSP" vls="110"/>
<sst desc="W³oszczowa 110 kV" geo="1" lat="50.85" lon="19.96" name="WSW" path="/PSE-2/WSW" vls="110"/>
<sst desc="Wrotków 110 kV" geo="1" lat="51.2" lon="22.54" name="WTW" path="/PSE-2/WTW" vls="110"/>
<sst desc="Zamo¶æ 220/110 kV" geo="1" lat="50.71" lon="23.29" name="ZAM" path="/PSE-2/ZAM" vls="220,110,30,15"/>
<sst desc="Zas³aw 110 kV" geo="1" lat="49.53" lon="22.28" name="ZAS" path="/PSE-2/ZAS" vls="110"/>
<sst desc="Zêbiec 110 kV" geo="1" lat="51.06" lon="21.15" name="ZEB" path="/PSE-2/ZEB" vls="110"/>
<sst desc="¯ó³kiewka 110 kV" geo="1" lat="50.91" lon="22.83" name="ZKK" path="/PSE-2/ZKK" vls="110"/>
<sst desc="Zaklików 110 kV" geo="1" lat="50.75" lon="22.1" name="ZKL" path="/PSE-2/ZKL" vls="110"/>
<sst desc="Zamo¶æ Janowice 110 kV" geo="1" lat="50.71" lon="23.22" name="ZMJ" path="/PSE-2/ZMJ" vls="110"/>
<sst desc="Zamo¶æ Majdan 110 kV" geo="1" lat="50.74" lon="23.29" name="ZMM" path="/PSE-2/ZMM" vls="110"/>
<sst desc="Zak³.Met.Skar¿ysko 110 kV" geo="1" lat="51.11" lon="20.84" name="ZMS" path="/PSE-2/ZMS" vls="110"/>
<sst desc="Zwoleñ 110 kV" geo="1" lat="51.36" lon="21.58" name="ZWO" path="/PSE-2/ZWO" vls="110"/>
<sst desc="Azoty Chorzów 110 kV" geo="1" lat="50.31" lon="19.03" name="ACH" path="/PSE-3/ACH" vls="110"/>
<sst desc="Azoty EC1 110 kV" geo="1" lat="50.03" lon="20.88" name="AE1" path="/PSE-3/AE1" vls="110"/>
<sst desc="Azoty EC2 110 kV" geo="1" lat="50.02" lon="20.88" name="AE2" path="/PSE-3/AE2" vls="110"/>
<sst desc="Aleksandrowice 110 kV" geo="1" lat="49.8" lon="19" name="ALE" path="/PSE-3/ALE" vls="110"/>
<sst desc="Alwernia 110 kV" geo="1" lat="50.06" lon="19.54" name="ALW" path="/PSE-3/ALW" vls="110"/>
<sst desc="Andaluzja 110 kV" geo="1" lat="50.35" lon="18.98" name="ANA" path="/PSE-3/ANA" vls="110"/>
<sst desc="Andrychów 110 kV" geo="1" lat="49.87" lon="19.33" name="AND" path="/PSE-3/AND" vls="110"/>
<sst desc="Anio³ów 220/110 kV" geo="1" lat="50.83" lon="19.15" name="ANI" path="/PSE-3/ANI" vls="220,110,15,0.4,0.22"/>
<sst desc="Anio³ki 110 kV" geo="1" lat="50.23" lon="18.7" name="ANK" path="/PSE-3/ANK" vls="110"/>
<sst desc="Anna 110 kV" geo="1" lat="50.04" lon="18.38" name="ANN" path="/PSE-3/ANN" vls="110"/>
<sst desc="Argentyna 110 kV" geo="1" lat="50.51" lon="19.44" name="ARG" path="/PSE-3/ARG" vls="110"/>
<sst desc="Azoty Tarnów 110 kV" geo="1" lat="50.05" lon="20.89" name="ATA" path="/PSE-3/ATA" vls="110,220"/>
<sst desc="Balicka 110 kV" geo="1" lat="50.08" lon="19.85" name="BAL" path="/PSE-3/BAL" vls="110"/>
<sst desc="Baranowice 110 kV" geo="1" lat="50.02" lon="18.71" name="BAN" path="/PSE-3/BAN" vls="110"/>
<sst desc="Barbara 110 kV" geo="1" lat="50.31" lon="18.76" name="BAR" path="/PSE-3/BAR" vls="110"/>
<sst desc="Bieñczyce 110 kV" geo="1" lat="50.08" lon="20.03" name="BCC" path="/PSE-3/BCC" vls="110"/>
<sst desc="Biadoliny 110 kV" geo="1" lat="50" lon="20.77" name="BDL" path="/PSE-3/BDL" vls="110"/>
<sst desc="Beata 110 kV" geo="1" lat="50.2" lon="19.2" name="BEA" path="/PSE-3/BEA" vls="110"/>
<sst desc="Bêdzin 110 kV" geo="1" lat="50.32" lon="19.13" name="BED" path="/PSE-3/BED" vls="110"/>
<sst desc="EC Bêdzin" geo="1" lat="50.3" lon="19.14" name="BDZ" path="/PSE-3/BDZ" vls="110,10"/>
<sst desc="Bia³ka 110 kV" geo="1" lat="49.7" lon="19.67" name="BIA" path="/PSE-3/BIA" vls="110"/>
<sst desc="Bielice 110 kV" geo="1" lat="50.55" lon="17.49" name="BIE" path="/PSE-3/BIE" vls="110"/>
<sst desc="Biegonice 110kV" geo="1" lat="49.6" lon="20.67" name="BIG" path="/PSE-3/BIG" vls="110"/>
<sst desc="Bieruñ 220/110 kV" geo="1" lat="50.08" lon="19.07" name="BIR" path="/PSE-3/BIR" vls="220,110,0.4,0.22,0.23,0.048"/>
<sst desc="Biskupice 110 kV" geo="1" lat="50.32" lon="18.83" name="BIS" path="/PSE-3/BIS" vls="110"/>
<sst desc="Borki 110 kV" geo="1" lat="50.73" lon="17.87" name="BKI" path="/PSE-3/BKI" vls="110"/>
<sst desc="Bukowina 110 kV" geo="0" lat="0" lon="0" name="BKN" path="/PSE-3/BKN" vls="110"/>
<sst desc="Bolko 110 kV" geo="1" lat="50.35" lon="18.92" name="BKO" path="/PSE-3/BKO" vls="110"/>
<sst desc="Bukowiec 110 kV" geo="1" lat="50.61" lon="18.94" name="BKW" path="/PSE-3/BKW" vls="110"/>
<sst desc="Blachownia 220/110 kV" geo="1" lat="50.33" lon="18.3" name="BLA" path="/PSE-3/BLA" vls="220,110,0.4,0.22"/>
<sst desc="El.Blachownia" geo="1" lat="50.35" lon="18.28" name="BLW" path="/PSE-3/BLW" vls="10,110"/>
<sst desc="B³eszno 110 kV" geo="1" lat="50.77" lon="19.14" name="BLE" path="/PSE-3/BLE" vls="110"/>
<sst desc="B³onie 110 kV" geo="1" lat="49.58" lon="20.7" name="BLO" path="/PSE-3/BLO" vls="110"/>
<sst desc="Bodzanów 110 kV" geo="1" lat="50.34" lon="17.38" name="BOD" path="/PSE-3/BOD" vls="110"/>
<sst desc="Bogucice 110 kV" geo="1" lat="50.27" lon="19.04" name="BOG" path="/PSE-3/BOG" vls="110"/>
<sst desc="Bojszowy 110 kV" geo="1" lat="50.06" lon="19.1" name="BOJ" path="/PSE-3/BOJ" vls="110"/>
<sst desc="Bonarka 110 kV" geo="1" lat="50.03" lon="19.94" name="BON" path="/PSE-3/BON" vls="110"/>
<sst desc="Borowe Pole 110 kV" geo="1" lat="50.5" lon="19.4" name="BOP" path="/PSE-3/BOP" vls="110"/>
<sst desc="Borynia 110 kV" geo="1" lat="50.02" lon="18.65" name="BOR" path="/PSE-3/BOR" vls="110"/>
<sst desc="Borowa 110 kV" geo="1" lat="50.24" lon="18.84" name="BOW" path="/PSE-3/BOW" vls="110"/>
<sst desc="Bierdzany 110 kV" geo="1" lat="50.83" lon="18.15" name="BRD" path="/PSE-3/BRD" vls="110"/>
<sst desc="Brembo 110 kV" geo="1" lat="50.38" lon="19.36" name="BRE" path="/PSE-3/BRE" vls="110"/>
<sst desc="GPZ Bierkowice 110 kV" geo="1" lat="50.75" lon="19.15" name="BRK" path="/PSE-3/BRK" vls="110"/>
<sst desc="Brynów 110 kV" geo="1" lat="50.23" lon="18.99" name="BRY" path="/PSE-3/BRY" vls="110"/>
<sst desc="Brzesko 110 kV" geo="1" lat="49.98" lon="20.6" name="BRZ" path="/PSE-3/BRZ" vls="110"/>
<sst desc="Brzeszcze 110 kV" geo="1" lat="49.97" lon="19.15" name="BSC" path="/PSE-3/BSC" vls="110"/>
<sst desc="Bielsko 110 kV" geo="1" lat="49.8" lon="19.03" name="BSK" path="/PSE-3/BSK" vls="110"/>
<sst desc="Bielszowice 110 kV" geo="0" lat="0" lon="0" name="BSW" path="/PSE-3/BSW" vls="110"/>
<sst desc="Borek Szlachecki 110 kV" geo="1" lat="49.95" lon="19.77" name="BSZ" path="/PSE-3/BSZ" vls="110"/>
<sst desc="Bytków 110 kV" geo="1" lat="50.28" lon="18.98" name="BTK" path="/PSE-3/BTK" vls="110"/>
<sst desc="Budryk 110 kV" geo="1" lat="50.19" lon="18.76" name="BUD" path="/PSE-3/BUD" vls="110"/>
<sst desc="Bujaków 220 kV" geo="1" lat="49.85" lon="19.19" name="BUJ" path="/PSE-3/BUJ" vls="220,30,15,6,0.4,0.23,0.22,0.048"/>
<sst desc="Por±bka ¯ar" geo="1" lat="49.79" lon="19.19" name="ZAP" path="/PSE-3/ZAP" vls="220,15"/>
<sst desc="El.Por±bka" geo="1" lat="49.81" lon="19.21" name="EPR" path="/PSE-3/EPR" vls="6"/>
<sst desc="El.Tresna" geo="1" lat="49.75" lon="19.2" name="ETR" path="/PSE-3/ETR" vls="10"/>
<sst desc="Bukowno 110 kV" geo="1" lat="50.28" lon="19.47" name="BUK" path="/PSE-3/BUK" vls="110"/>
<sst desc="Bumar 110 kV" geo="1" lat="50.36" lon="18.62" name="BUM" path="/PSE-3/BUM" vls="110"/>
<sst desc="Byczyna 400/220 kV" geo="1" lat="50.16" lon="19.31" name="BYC" path="/PSE-3/BYC" vls="400,220,0.4,0.23,0.22,0.048,15,20"/>
<sst desc="El.Jaworzno 3" geo="1" lat="50.21" lon="19.2" name="JW3B" path="/PSE-3/JW3B" vls="15,220"/>
<sst desc="El.Jaworzno 2" geo="0" lat="0" lon="0" name="JW2N" path="/PSE-3/JW2N" vls="220,400,27"/>
<sst desc="Brzózka 110 kV" geo="1" lat="50.76" lon="19.12" name="BZA" path="/PSE-3/BZA" vls="110"/>
<sst desc="Brzezie 110 kV" geo="1" lat="50.09" lon="18.31" name="BZE" path="/PSE-3/BZE" vls="110"/>
<sst desc="Brzezinka 110 kV" geo="1" lat="50.2" lon="19.17" name="BZK" path="/PSE-3/BZK" vls="110"/>
<sst desc="Bie¿anów 110 kV" geo="1" lat="50.03" lon="20.03" name="BZN" path="/PSE-3/BZN" vls="110"/>
<sst desc="Ciê¿kowice 110 kV" geo="1" lat="49.78" lon="20.97" name="CCE" path="/PSE-3/CCE" vls="110"/>
<sst desc="Cerekiew 110 kV" geo="1" lat="50.23" lon="18.13" name="CER" path="/PSE-3/CER" vls="110"/>
<sst desc="Cem. Strzelce 110 kV" geo="1" lat="50.52" lon="18.3" name="CES" path="/PSE-3/CES" vls="110"/>
<sst desc="Ceglana 110 kV" geo="1" lat="50.48" lon="17.59" name="CGL" path="/PSE-3/CGL" vls="110"/>
<sst desc="Chudów 110 kV" geo="1" lat="50.2" lon="18.77" name="CHD" path="/PSE-3/CHD" vls="110"/>
<sst desc="Che³mek 110 kV" geo="1" lat="50.1" lon="19.25" name="CHE" path="/PSE-3/CHE" vls="110"/>
<sst desc="Chemik 110 kV" geo="1" lat="50.32" lon="18.24" name="CHI" path="/PSE-3/CHI" vls="110"/>
<sst desc="Chech³ówka 110 kV" geo="1" lat="50.29" lon="19.21" name="CHK" path="/PSE-3/CHK" vls="110"/>
<sst desc="Chorzów 110 kV" geo="1" lat="50.32" lon="18.95" name="CHO" path="/PSE-3/CHO" vls="110"/>
<sst desc="El.Chorzów" geo="1" lat="50.34" lon="18.94" name="CHZ" path="/PSE-3/CHZ" vls="10,110"/>
<sst desc="Chrzanów 110 kV" geo="1" lat="50.13" lon="19.4" name="CHR" path="/PSE-3/CHR" vls="110"/>
<sst desc="Chwa³owice 110 kV" geo="1" lat="50.07" lon="18.55" name="CHW" path="/PSE-3/CHW" vls="110"/>
<sst desc="Cie¶le 110 kV" geo="1" lat="50.27" lon="19.28" name="CIE" path="/PSE-3/CIE" vls="110"/>
<sst desc="Cieszanowice 110 kV" geo="1" lat="50.57" lon="17.17" name="CIS" path="/PSE-3/CIS" vls="110"/>
<sst desc="Cykarzew 110 kV" geo="1" lat="50.95" lon="19.15" name="CYK" path="/PSE-3/CYK" vls="110"/>
<sst desc="Cynk. Miasteczko 110 kV" geo="1" lat="50.5" lon="18.91" name="CYM" path="/PSE-3/CYM" vls="110"/>
<sst desc="Czechowice 110 kV" geo="1" lat="49.9" lon="19" name="CZC" path="/PSE-3/CZC" vls="110"/>
<sst desc="Czelad¼ 110 kV" geo="1" lat="50.31" lon="19.07" name="CZL" path="/PSE-3/CZL" vls="110"/>
<sst desc="Czeczott 220 kV" geo="1" lat="50.01" lon="19.12" name="CZT" path="/PSE-3/CZT" vls="220"/>
<sst desc="Czy¿yny 110 kV" geo="1" lat="50.07" lon="20" name="CZY" path="/PSE-3/CZY" vls="110"/>
<sst desc="D±b 110kV" geo="1" lat="50.27" lon="19" name="DAB" path="/PSE-3/DAB" vls="110"/>
<sst desc="Dajwór 110kV" geo="1" lat="50.05" lon="19.93" name="DAJ" path="/PSE-3/DAJ" vls="110"/>
<sst desc="Dandówka 110 kV" geo="1" lat="50.27" lon="19.17" name="DAN" path="/PSE-3/DAN" vls="110"/>
<sst desc="Darkov 110 kV" geo="1" lat="49.83" lon="18.56" name="DAR" path="/PSE-3/DAR" vls="110"/>
<sst desc="Dobrzeñ 400/110 kV" geo="1" lat="50.74" lon="17.85" name="DBN" path="/PSE-3/DBN" vls="400,110,15,6,0.4,0.23,0.22,0.048"/>
<sst desc="Elektrownia Opole" geo="1" lat="50.75" lon="17.87" name="OPL" path="/PSE-3/OPL" vls="20,400,110,6"/>
<sst desc="Dobrodzieñ 110 kV" geo="1" lat="50.72" lon="18.43" name="DBR" path="/PSE-3/DBR" vls="110"/>
<sst desc="Dêbieñsko 110 kV" geo="1" lat="50.16" lon="18.66" name="DEB" path="/PSE-3/DEB" vls="110"/>
<sst desc="D±brówka 110 kV" geo="1" lat="50.3" lon="19.05" name="DKA" path="/PSE-3/DKA" vls="110"/>
<sst desc="EC Katowice" geo="1" lat="50.28" lon="19.05" name="ECK" path="/PSE-3/ECK" vls="110,15"/>
<sst desc="Dobczyce 110 kV" geo="1" lat="49.87" lon="20.08" name="DOB" path="/PSE-3/DOB" vls="110"/>
<sst desc="Dunajcowa 110 kV" geo="1" lat="50" lon="20.9" name="DUN" path="/PSE-3/DUN" vls="110"/>
<sst desc="Dwory 110 kV" geo="1" lat="50.04" lon="19.28" name="DWO" path="/PSE-3/DWO" vls="110"/>
<sst desc="Dworszowice 110 kV" geo="1" lat="51.05" lon="19.09" name="DWR" path="/PSE-3/DWR" vls="110"/>
<sst desc="Dymitrow 110 kV" geo="1" lat="50.37" lon="18.89" name="DYM" path="/PSE-3/DYM" vls="110"/>
<sst desc="Dzwonowa 110 kV" geo="1" lat="49.9" lon="21.29" name="DZW" path="/PSE-3/DZW" vls="110"/>
<sst desc="EC Bedzin 110 kV" geo="1" lat="50.3" lon="19.12" name="EBE" path="/PSE-3/EBE" vls="110"/>
<sst desc="EC Bielsko 110 kV" geo="1" lat="49.83" lon="19.03" name="ECB" path="/PSE-3/ECB" vls="110"/>
<sst desc="El.Bielsko" geo="1" lat="49.81" lon="19.06" name="BIB" path="/PSE-3/BIB" vls="6,110"/>
<sst desc="EC Gliwice 110 kV" geo="1" lat="50.28" lon="18.7" name="ECG" path="/PSE-3/ECG" vls="110"/>
<sst desc="EC Zabrze 110 kV" geo="1" lat="50.32" lon="18.77" name="ECZ" path="/PSE-3/ECZ" vls="110"/>
<sst desc="ELEKTR" geo="0" lat="0" lon="0" name="ELEKTR" path="/PSE-3/ELEKTR" vls=""/>
<sst desc="Emag 110 kV" geo="1" lat="50.27" lon="19.05" name="EMG" path="/PSE-3/EMG" vls="110"/>
<sst desc="Elektroraf. 110 kV" geo="1" lat="50.16" lon="19.44" name="ERA" path="/PSE-3/ERA" vls="110"/>
<sst desc="ERG ¯ory 110 kV" geo="1" lat="50.04" lon="18.66" name="ERZ" path="/PSE-3/ERZ" vls="110"/>
<sst desc="Ferrum 110 kV" geo="1" lat="50.24" lon="19.06" name="FER" path="/PSE-3/FER" vls="110"/>
<sst desc="Florian 110 kV" geo="1" lat="50.28" lon="18.91" name="FLO" path="/PSE-3/FLO" vls="110"/>
<sst desc="Folwark 110 kV" geo="1" lat="50.05" lon="18.65" name="FOL" path="/PSE-3/FOL" vls="110"/>
<sst desc="Francuska 110 kV" geo="1" lat="50.22" lon="19.03" name="FRA" path="/PSE-3/FRA" vls="110"/>
<sst desc="Fsm Bielsko 110 kV" geo="1" lat="49.83" lon="19.03" name="FSB" path="/PSE-3/FSB" vls="110"/>
<sst desc="FSM Tychy 110 kV" geo="1" lat="50.1" lon="19.05" name="FST" path="/PSE-3/FST" vls="110"/>
<sst desc="Fum Porêba 110 kV" geo="1" lat="50.5" lon="19.35" name="FUM" path="/PSE-3/FUM" vls="110"/>
<sst desc="Groszowice Cem. 110 kV" geo="1" lat="50.62" lon="17.96" name="GCE" path="/PSE-3/GCE" vls="110"/>
<sst desc="Grodziec 110 kV" geo="1" lat="50.36" lon="19.08" name="GDC" path="/PSE-3/GDC" vls="110"/>
<sst desc="Grodków 110 kV" geo="1" lat="50.72" lon="17.38" name="GDK" path="/PSE-3/GDK" vls="110"/>
<sst desc="G³êboka Halemba 110 kV" geo="1" lat="50.25" lon="18.9" name="GHA" path="/PSE-3/GHA" vls="110"/>
<sst desc="Giszowiec 110 kV" geo="1" lat="50.23" lon="19.07" name="GIS" path="/PSE-3/GIS" vls="110"/>
<sst desc="Glinik 110 kV" geo="1" lat="49.66" lon="21.2" name="GLI" path="/PSE-3/GLI" vls="110"/>
<sst desc="G³ubczyce 110 kV" geo="1" lat="50.22" lon="17.83" name="GLU" path="/PSE-3/GLU" vls="110"/>
<sst desc="Gocza 110 kV" geo="1" lat="49.95" lon="18.92" name="GOA" path="/PSE-3/GOA" vls="110"/>
<sst desc="Gocza³kowice 110kV" geo="1" lat="49.94" lon="18.97" name="GOC" path="/PSE-3/GOC" vls="110"/>
<sst desc="Góra¿d¿e 110 kV" geo="1" lat="50.53" lon="18" name="GOE" path="/PSE-3/GOE" vls="110"/>
<sst desc="Go³onóg 110 kV" geo="1" lat="50.35" lon="19.23" name="GOL" path="/PSE-3/GOL" vls="110"/>
<sst desc="Górka 110 kV" geo="1" lat="50.1" lon="19.95" name="GOR" path="/PSE-3/GOR" vls="110"/>
<sst desc="Gos³awice 110 kV" geo="1" lat="50.68" lon="17.95" name="GOS" path="/PSE-3/GOS" vls="110"/>
<sst desc="Gorzków 110kV" geo="1" lat="49.6" lon="20.72" name="GOW" path="/PSE-3/GOW" vls="110"/>
<sst desc="Gracze 110kV" geo="1" lat="50.7" lon="17.55" name="GRA" path="/PSE-3/GRA" vls="110"/>
<sst desc="Grzybowice 110 kV" geo="1" lat="50.35" lon="18.77" name="GRB" path="/PSE-3/GRB" vls="110"/>
<sst desc="Grudzicka 110kV" geo="1" lat="50.65" lon="17.98" name="GRD" path="/PSE-3/GRD" vls="110"/>
<sst desc="Grabówka 110 kV" geo="1" lat="50.02" lon="21" name="GRK" path="/PSE-3/GRK" vls="110"/>
<sst desc="Górnicza 110 kV" geo="1" lat="50.24" lon="18.65" name="GRN" path="/PSE-3/GRN" vls="110"/>
<sst desc="Groszowice 220/110 kV" geo="1" lat="50.63" lon="17.97" name="GRO" path="/PSE-3/GRO" vls="220,110,10,15,0.4,0.23,0.22,0.048"/>
<sst desc="Grunwaldzka 110 kV" geo="1" lat="50.17" lon="20.98" name="GRW" path="/PSE-3/GRW" vls="110"/>
<sst desc="Grybów 110 kV" geo="1" lat="49.63" lon="20.95" name="GRY" path="/PSE-3/GRY" vls="110"/>
<sst desc="Grzybowa 110 kV" geo="1" lat="50.08" lon="18.54" name="GRZ" path="/PSE-3/GRZ" vls="110"/>
<sst desc="Guardian 110 kV" geo="1" lat="50.8" lon="19.15" name="GUA" path="/PSE-3/GUA" vls="110"/>
<sst desc="Guido 110 kV" geo="0" lat="0" lon="0" name="GUI" path="/PSE-3/GUI" vls="110"/>
<sst desc="Gorwap 110 kV" geo="1" lat="50.52" lon="18.03" name="GWA" path="/PSE-3/GWA" vls="110"/>
<sst desc="Gen.Zawadzki 110 kV" geo="1" lat="50.32" lon="19.17" name="GZA" path="/PSE-3/GZA" vls="110"/>
<sst desc="Hajduki 110kV" geo="1" lat="50.43" lon="17.36" name="HAJ" path="/PSE-3/HAJ" vls="110"/>
<sst desc="Halemba 220/110 kV" geo="1" lat="50.23" lon="18.87" name="HAL" path="/PSE-3/HAL" vls="220,110"/>
<sst desc="" geo="0" lat="0" lon="0" name="HLM" path="/PSE-3/HLM" vls=""/>
<sst desc="Harcerska 110 kV" geo="1" lat="50.68" lon="17.92" name="HAR" path="/PSE-3/HAR" vls="110"/>
<sst desc="Ha¼laska 110 kV" geo="1" lat="49.76" lon="18.63" name="HAZ" path="/PSE-3/HAZ" vls="110"/>
<sst desc="Huta Bochnia 110 kV" geo="1" lat="49.95" lon="20.46" name="HBC" path="/PSE-3/HBC" vls="110"/>
<sst desc="HCZ Mirów 110 kV" geo="1" lat="50.8" lon="19.17" name="HCM" path="/PSE-3/HCM" vls="110"/>
<sst desc="HCZ Odlewnia 110 kV" geo="1" lat="50.78" lon="19.17" name="HCO" path="/PSE-3/HCO" vls="110"/>
<sst desc="HCZ Walcownia 110 kV" geo="1" lat="50.8" lon="19.2" name="HCW" path="/PSE-3/HCW" vls="110"/>
<sst desc="Huta Czêstochowa 220 kV" geo="1" lat="50.8" lon="19.18" name="HCZ" path="/PSE-3/HCZ" vls="220"/>
<sst desc="Herby 110 kV" geo="1" lat="50.75" lon="18.88" name="HER" path="/PSE-3/HER" vls="110"/>
<sst desc="Huta Ko¶ciuszko 110 kV" geo="1" lat="50.3" lon="18.95" name="HKO" path="/PSE-3/HKO" vls="110"/>
<sst desc="Huta £aziska 110 kV" geo="1" lat="50.17" lon="18.82" name="HLA" path="/PSE-3/HLA" vls="110"/>
<sst desc="Huta £abêdy 110kV" geo="1" lat="50.33" lon="18.62" name="HLB" path="/PSE-3/HLB" vls="110"/>
<sst desc="Huta Miasteczko 110 kV" geo="1" lat="50.46" lon="18.94" name="HMI" path="/PSE-3/HMI" vls="110"/>
<sst desc="Hermanowice 110 kV" geo="1" lat="50.85" lon="17.45" name="HMN" path="/PSE-3/HMN" vls="110"/>
<sst desc="Huta Pokój 110 kV" geo="1" lat="50.28" lon="18.87" name="HPO" path="/PSE-3/HPO" vls="110"/>
<sst desc="H.Sendzimira 2 110 kV" geo="1" lat="50.07" lon="20.06" name="HS2" path="/PSE-3/HS2" vls="110"/>
<sst desc="H.Sendzimira 3 110 kV" geo="1" lat="50.07" lon="20.08" name="HS3" path="/PSE-3/HS3" vls="110"/>
<sst desc="H.Sendzimira 6 110 kV" geo="1" lat="50.07" lon="20.1" name="HS6" path="/PSE-3/HS6" vls="110"/>
<sst desc="H.Sendzimira 7 110 kV" geo="1" lat="50.08" lon="20.11" name="HS7" path="/PSE-3/HS7" vls="110"/>
<sst desc="H.Sendzimira 9 110 kV" geo="1" lat="50.07" lon="20.15" name="HS9" path="/PSE-3/HS9" vls="110"/>
<sst desc="Huta Silesia 110 kV" geo="1" lat="50.1" lon="18.57" name="HSI" path="/PSE-3/HSI" vls="110"/>
<sst desc="Imielin 110 kV" geo="1" lat="50.17" lon="19.16" name="IMI" path="/PSE-3/IMI" vls="110"/>
<sst desc="Jaworzno 1 110kV" geo="1" lat="50.22" lon="19.27" name="JA1" path="/PSE-3/JA1" vls="110"/>
<sst desc="Jaworzno 2 110 kV" geo="1" lat="50.23" lon="19.25" name="JA2" path="/PSE-3/JA2" vls="110"/>
<sst desc="El. Jaworzno 2" geo="1" lat="50.21" lon="19.23" name="JW2" path="/PSE-3/JW2" vls="10,110"/>
<sst desc="Jab³onka 110 kV" geo="1" lat="49.5" lon="19.7" name="JAB" path="/PSE-3/JAB" vls="110"/>
<sst desc="Jadwiga 110 kV" geo="1" lat="50.27" lon="19.21" name="JAD" path="/PSE-3/JAD" vls="110"/>
<sst desc="Jankowice 110 kV" geo="1" lat="50.03" lon="18.55" name="JAK" path="/PSE-3/JAK" vls="110"/>
<sst desc="Jamki 220/110 kV" geo="1" lat="50.33" lon="19.25" name="JAM" path="/PSE-3/JAM" vls="220,110,15,6,0.4,0.22,0.048,0.23"/>
<sst desc="Janów 110 kV" geo="1" lat="50.23" lon="19.09" name="JAN" path="/PSE-3/JAN" vls="110"/>
<sst desc="Jaroszowiec 110 kV" geo="1" lat="50.33" lon="19.6" name="JAR" path="/PSE-3/JAR" vls="110"/>
<sst desc="Jastrzêbie 110 kV" geo="1" lat="49.95" lon="18.63" name="JAT" path="/PSE-3/JAT" vls="110"/>
<sst desc="Jed³ownik 110 kV" geo="1" lat="50.01" lon="18.41" name="JDW" path="/PSE-3/JDW" vls="110"/>
<sst desc="Jeleñ 110 kV" geo="1" lat="50.18" lon="19.23" name="JEL" path="/PSE-3/JEL" vls="110"/>
<sst desc="Jedno¶æ 110 kV" geo="1" lat="50.31" lon="19.03" name="JEN" path="/PSE-3/JEN" vls="110"/>
<sst desc="Julianka 110 kV" geo="1" lat="50.77" lon="19.47" name="JLK" path="/PSE-3/JLK" vls="110"/>
<sst desc="Julian 110 kV" geo="1" lat="50.38" lon="18.93" name="JLN" path="/PSE-3/JLN" vls="110"/>
<sst desc="Jamnice 110 kV" geo="1" lat="50.07" lon="19.19" name="JMN" path="/PSE-3/JMN" vls="110"/>
<sst desc="Janina 110 kV" geo="1" lat="50.09" lon="19.33" name="JNI" path="/PSE-3/JNI" vls="110"/>
<sst desc="Janinów 110 kV" geo="1" lat="51.07" lon="18.62" name="JNW" path="/PSE-3/JNW" vls="110"/>
<sst desc="Joachimów 400/220 kV" geo="1" lat="50.73" lon="19.27" name="JOA" path="/PSE-3/JOA" vls="400,220,15,0.4,0.22,0.23,0.048"/>
<sst desc="Jordanów 110 kV" geo="1" lat="49.67" lon="19.83" name="JOR" path="/PSE-3/JOR" vls="110"/>
<sst desc="Jowisz 110 kV" geo="1" lat="50.35" lon="19.05" name="JOW" path="/PSE-3/JOW" vls="110"/>
<sst desc="Juliusz 110 kV" geo="1" lat="50.26" lon="19.23" name="JUL" path="/PSE-3/JUL" vls="110"/>
<sst desc="Jawiszowice 110 kV" geo="1" lat="49.95" lon="19.13" name="JWS" path="/PSE-3/JWS" vls="110"/>
<sst desc="K±dzielów 110 kV" geo="1" lat="50.48" lon="19.38" name="KAD" path="/PSE-3/KAD" vls="110"/>
<sst desc="Kalwaria 110 kV" geo="1" lat="49.88" lon="19.68" name="KAL" path="/PSE-3/KAL" vls="110"/>
<sst desc="Karol 110 kV" geo="1" lat="50.32" lon="18.88" name="KAR" path="/PSE-3/KAR" vls="110"/>
<sst desc="Katowice 220/110 kV" geo="1" lat="50.25" lon="19.03" name="KAT" path="/PSE-3/KAT" vls="220,110,15,0.4,0.23,0.22,0.048"/>
<sst desc="Kawodrza 110 kV" geo="1" lat="50.8" lon="19.07" name="KAW" path="/PSE-3/KAW" vls="110"/>
<sst desc="Kazimierz 110 kV" geo="1" lat="50.28" lon="19.23" name="KAZ" path="/PSE-3/KAZ" vls="110"/>
<sst desc="Kop.Bobrek 110 kV" geo="1" lat="50.37" lon="18.87" name="KBO" path="/PSE-3/KBO" vls="110"/>
<sst desc="Klucznikowice 110 kV" geo="1" lat="50.05" lon="19.23" name="KCE" path="/PSE-3/KCE" vls="110"/>
<sst desc="Krakowskie Centrum Komunikacji 110 kV" geo="1" lat="50.04" lon="19.95" name="KCK" path="/PSE-3/KCK" vls="110"/>
<sst desc="Kiedrzyñ 110 kV" geo="1" lat="50.87" lon="19.1" name="KDN" path="/PSE-3/KDN" vls="110"/>
<sst desc="Kêdzierz 110 kV" geo="1" lat="50.08" lon="21.43" name="KDR" path="/PSE-3/KDR" vls="110"/>
<sst desc="Kêdzierzyn 220/110 kV" geo="1" lat="50.29" lon="18.33" name="KED" path="/PSE-3/KED" vls="220,110"/>
<sst desc="Kêty 110 kV" geo="1" lat="49.9" lon="19.22" name="KET" path="/PSE-3/KET" vls="110"/>
<sst desc="Kop.Halemba 110 kV" geo="1" lat="50.27" lon="18.85" name="KHA" path="/PSE-3/KHA" vls="110"/>
<sst desc="Koksochemia 220 kV" geo="1" lat="50.35" lon="19.28" name="KHK" path="/PSE-3/KHK" vls="220,6,0.4,0.048,0.23,0.22"/>
<sst desc="Klikowa 220/110 kV" geo="1" lat="50.05" lon="20.95" name="KLA" path="/PSE-3/KLA" vls="220,110,0.4,0.22,0.23,0.048"/>
<sst desc="Klucze 110 kV" geo="1" lat="50.33" lon="19.56" name="KLC" path="/PSE-3/KLC" vls="110"/>
<sst desc="K³okocin 110 kV" geo="1" lat="50.07" lon="18.63" name="KLK" path="/PSE-3/KLK" vls="110"/>
<sst desc="Klimontów 110 kV" geo="1" lat="50.27" lon="19.19" name="KLM" path="/PSE-3/KLM" vls="110"/>
<sst desc="K³obuck 110 kV" geo="1" lat="50.92" lon="18.93" name="KLO" path="/PSE-3/KLO" vls="110"/>
<sst desc="K³obuck Po³udnie 110 kV" geo="1" lat="50.88" lon="18.95" name="KLP" path="/PSE-3/KLP" vls="110"/>
<sst desc="Kalety 110 kV" geo="1" lat="50.55" lon="18.88" name="KLT" path="/PSE-3/KLT" vls="110"/>
<sst desc="Kluczbork 110 kV" geo="1" lat="50.98" lon="18.22" name="KLU" path="/PSE-3/KLU" vls="110"/>
<sst desc="Kampus 110 kV" geo="1" lat="50.02" lon="19.88" name="KMP" path="/PSE-3/KMP" vls="110"/>
<sst desc="Klimzowiec 110 kV" geo="1" lat="50.3" lon="18.97" name="KMZ" path="/PSE-3/KMZ" vls="110"/>
<sst desc="Koniecpol 110 kV" geo="1" lat="50.78" lon="19.7" name="KNC" path="/PSE-3/KNC" vls="110"/>
<sst desc="Knurów 110 kV" geo="1" lat="50.22" lon="18.67" name="KNU" path="/PSE-3/KNU" vls="110"/>
<sst desc="Koz³owska 110 kV" geo="1" lat="50.28" lon="18.63" name="KOK" path="/PSE-3/KOK" vls="110"/>
<sst desc="Kop.Olkusz 110 kV" geo="1" lat="50.28" lon="19.54" name="KOL" path="/PSE-3/KOL" vls="110"/>
<sst desc="Komorowice 220/110 kV" geo="1" lat="49.86" lon="19.03" name="KOM" path="/PSE-3/KOM" vls="220,110,15,0.4"/>
<sst desc="EC Bielsko II" geo="1" lat="49.94" lon="19.01" name="BIP" path="/PSE-3/BIP" vls="10,110"/>
<sst desc="Kopanina 220/110 kV" geo="1" lat="50.15" lon="18.95" name="KOP" path="/PSE-3/KOP" vls="220,110,15,6,0.4,0.22,0.23,0.048"/>
<sst desc="El. £aziska 3" geo="1" lat="50.14" lon="18.9" name="LZA3" path="/PSE-3/LZA3" vls="15,110,220"/>
<sst desc="Korabniki 110 kV" geo="1" lat="49.98" lon="19.85" name="KOR" path="/PSE-3/KOR" vls="110"/>
<sst desc="Kostów 110 kV" geo="1" lat="51.17" lon="18.15" name="KOS" path="/PSE-3/KOS" vls="110"/>
<sst desc="Kotowice 110 kV" geo="1" lat="50.58" lon="19.45" name="KOT" path="/PSE-3/KOT" vls="110"/>
<sst desc="Kop.Pokój 110 kV" geo="1" lat="50.27" lon="18.88" name="KPO" path="/PSE-3/KPO" vls="110"/>
<sst desc="Krapkowice 110 kV" geo="1" lat="50.48" lon="17.95" name="KRE" path="/PSE-3/KRE" vls="110"/>
<sst desc="Karlik 110 kV" geo="1" lat="50.22" lon="19.1" name="KRL" path="/PSE-3/KRL" vls="110"/>
<sst desc="Krupski M³yn 110 kV" geo="1" lat="50.58" lon="18.62" name="KRM" path="/PSE-3/KRM" vls="110"/>
<sst desc="Kro¶cienko 110 kV" geo="1" lat="49.45" lon="20.43" name="KRS" path="/PSE-3/KRS" vls="110"/>
<sst desc="Krynica 110 kV" geo="1" lat="49.43" lon="20.97" name="KRY" path="/PSE-3/KRY" vls="110"/>
<sst desc="Krzeszowice 110 kV" geo="1" lat="50.17" lon="19.63" name="KRZ" path="/PSE-3/KRZ" vls="110"/>
<sst desc="Kop.Szombierki 110 kV" geo="1" lat="50.36" lon="18.86" name="KSB" path="/PSE-3/KSB" vls="110"/>
<sst desc="Koszecin 110 kV" geo="1" lat="50.63" lon="18.85" name="KSC" path="/PSE-3/KSC" vls="110"/>
<sst desc="Kop.Silesia 110 kV" geo="1" lat="50" lon="19.15" name="KSI" path="/PSE-3/KSI" vls="110"/>
<sst desc="Kop.Sosnowiec 110 kV" geo="1" lat="50.28" lon="19.19" name="KSO" path="/PSE-3/KSO" vls="110"/>
<sst desc="Kop.So¶nica 110 kV" geo="0" lat="0" lon="0" name="KSS" path="/PSE-3/KSS" vls="110"/>
<sst desc="Kop.Staszic 110 kV" geo="1" lat="50.21" lon="19.05" name="KST" path="/PSE-3/KST" vls="110"/>
<sst desc="Kop.Szczyg³owice 110 kV" geo="1" lat="50.18" lon="18.62" name="KSZ" path="/PSE-3/KSZ" vls="110"/>
<sst desc="Kotlarnia 110 kV" geo="1" lat="50.27" lon="18.37" name="KTL" path="/PSE-3/KTL" vls="110"/>
<sst desc="Kotlarska 110 kV" geo="1" lat="50.05" lon="19.95" name="KTR" path="/PSE-3/KTR" vls="110"/>
<sst desc="Kietrz 110 kV" geo="1" lat="50.08" lon="18.01" name="KTZ" path="/PSE-3/KTZ" vls="110"/>
<sst desc="Kuniów 110 kV" geo="1" lat="50.95" lon="18.23" name="KUN" path="/PSE-3/KUN" vls="110"/>
<sst desc="Ku¼nia Raciborska 110 kV" geo="1" lat="50.2" lon="18.3" name="KUR" path="/PSE-3/KUR" vls="110"/>
<sst desc="Kurów 110 kV" geo="1" lat="49.95" lon="20.42" name="KUW" path="/PSE-3/KUW" vls="110"/>
<sst desc="Kop.Wirek 110kV" geo="1" lat="50.27" lon="18.91" name="KWI" path="/PSE-3/KWI" vls="110"/>
<sst desc="Kop.Wujek 110kV" geo="1" lat="50.24" lon="18.97" name="KWU" path="/PSE-3/KWU" vls="110"/>
<sst desc="Koksownia Zdzieszowice 110 kV" geo="1" lat="50.43" lon="18.12" name="KZD" path="/PSE-3/KZD" vls="110"/>
<sst desc="Ko¼le 110 kV" geo="1" lat="50.34" lon="18.21" name="KZL" path="/PSE-3/KZL" vls="110"/>
<sst desc="£abêdy 110 kV" geo="1" lat="50.35" lon="18.63" name="LAB" path="/PSE-3/LAB" vls="110"/>
<sst desc="£adna 110 kV" geo="1" lat="50.02" lon="21.07" name="LAD" path="/PSE-3/LAD" vls="110"/>
<sst desc="£agisza 400/220/110 kV" geo="1" lat="50.33" lon="19.1" name="LAG" path="/PSE-3/LAG" vls="400,220,110,15,6,0.4,0.048,0.22,0.23"/>
<sst desc="El. £agisza" geo="1" lat="50.35" lon="19.12" name="LGA" path="/PSE-3/LGA" vls="400,220,110,20,13,10,6"/>
<sst desc="Lasek 110 kV" geo="1" lat="49.51" lon="19.98" name="LAK" path="/PSE-3/LAK" vls="110"/>
<sst desc="£aziska ¦rednie 110 kV" geo="1" lat="50.19" lon="18.93" name="LAS" path="/PSE-3/LAS" vls="110"/>
<sst desc="Latoszyn 110 kV" geo="1" lat="50.03" lon="21.37" name="LAT" path="/PSE-3/LAT" vls="110"/>
<sst desc="£aziska 110 kV" geo="1" lat="50.15" lon="18.83" name="LAZ" path="/PSE-3/LAZ" vls="110"/>
<sst desc="Elektrownia £aziska 2" geo="1" lat="50.14" lon="18.85" name="LZA2" path="/PSE-3/LZA2" vls="15,110"/>
<sst desc="Lubliniec 110 kV" geo="1" lat="50.68" lon="18.68" name="LBN" path="/PSE-3/LBN" vls="110"/>
<sst desc="£agisza Bory 110 kV" geo="1" lat="50.36" lon="19.17" name="LBO" path="/PSE-3/LBO" vls="110"/>
<sst desc="Le¶na 110 kV" geo="1" lat="50.27" lon="18.93" name="LEA" path="/PSE-3/LEA" vls="110"/>
